$GPGGA,214217.42,5315.7667,N,05022.3667,E,1,4,0.9,50.0,M,0.0,M,,*52
$GPVTG,89.2,T,,M,5.4,N,10.0,K,S*1C
$GPGGA,214217.52,5315.7668,N,05022.3669,E,1,4,0.9,50.0,M,0.0,M,,*52
$GPVTG,89.2,T,,M,5.4,N,10.0,K,S*1C
$GPGGA,214217.62,5315.7669,N,05022.3670,E,1,4,0.9,50.0,M,0.0,M,,*58
$GPVTG,89.2,T,,M,5.4,N,10.0,K,S*1C
$GPGGA,214217.72,5315.7670,N,05022.3672,E,1,4,0.9,50.0,M,0.0,M,,*53
$GPVTG,89.2,T,,M,5.4,N,10.0,K,S*1C
$GPGGA,214217.82,5315.7671,N,05022.3674,E,1,4,0.9,50.0,M,0.0,M,,*5B
$GPVTG,89.2,T,,M,5.4,N,10.0,K,S*1C
$GPGGA,214217.92,5315.7672,N,05022.3676,E,1,4,0.9,50.0,M,0.0,M,,*5B
$GPVTG,89.2,T,,M,5.4,N,10.0,K,S*1C
$GPGGA,214218.02,5315.7673,N,05022.3677,E,1,4,0.9,50.0,M,0.0,M,,*5D
$GPVTG,89.2,T,,M,5.4,N,10.0,K,S*1C
$GPGGA,214218.12,5315.7675,N,05022.3679,E,1,4,0.9,50.0,M,0.0,M,,*54
$GPVTG,89.2,T,,M,5.4,N,10.0,K,S*1C
$GPGGA,214218.22,5315.7676,N,05022.3681,E,1,4,0.9,50.0,M,0.0,M,,*53
$GPVTG,89.2,T,,M,5.4,N,10.0,K,S*1C
$GPGGA,214218.32,5315.7677,N,05022.3683,E,1,4,0.9,50.0,M,0.0,M,,*51
$GPVTG,89.2,T,,M,5.4,N,10.0,K,S*1C
$GPGGA,214218.42,5315.7678,N,05022.3684,E,1,4,0.9,50.0,M,0.0,M,,*5E
$GPVTG,89.2,T,,M,5.4,N,10.0,K,S*1C
$GPGGA,214218.52,5315.7679,N,05022.3686,E,1,4,0.9,50.0,M,0.0,M,,*5C
$GPVTG,89.2,T,,M,5.4,N,10.0,K,S*1C
$GPGGA,214218.62,5315.7680,N,05022.3688,E,1,4,0.9,50.0,M,0.0,M,,*57
$GPVTG,89.2,T,,M,5.4,N,10.0,K,S*1C
$GPGGA,214218.72,5315.7681,N,05022.3690,E,1,4,0.9,50.0,M,0.0,M,,*5E
$GPVTG,89.2,T,,M,5.4,N,10.0,K,S*1C
$GPGGA,214218.82,5315.7682,N,05022.3692,E,1,4,0.9,50.0,M,0.0,M,,*50
$GPVTG,89.2,T,,M,5.4,N,10.0,K,S*1C
$GPGGA,214218.92,5315.7683,N,05022.3693,E,1,4,0.9,50.0,M,0.0,M,,*51
$GPVTG,89.2,T,,M,5.4,N,10.0,K,S*1C
$GPGGA,214219.02,5315.7684,N,05022.3695,E,1,4,0.9,50.0,M,0.0,M,,*58
$GPVTG,89.2,T,,M,5.4,N,10.0,K,S*1C
$GPGGA,214219.12,5315.7685,N,05022.3697,E,1,4,0.9,50.0,M,0.0,M,,*5A
$GPVTG,89.2,T,,M,5.4,N,10.0,K,S*1C
$GPGGA,214219.23,5315.7686,N,05022.3699,E,1,4,0.9,50.0,M,0.0,M,,*55
$GPVTG,89.2,T,,M,5.4,N,10.0,K,S*1C
$GPGGA,214219.33,5315.7687,N,05022.3700,E,1,4,0.9,50.0,M,0.0,M,,*54
$GPVTG,89.2,T,,M,5.4,N,10.0,K,S*1C
$GPGGA,214219.43,5315.7688,N,05022.3702,E,1,4,0.9,50.0,M,0.0,M,,*5E
$GPVTG,89.2,T,,M,5.4,N,10.0,K,S*1C
$GPGGA,214219.53,5315.7689,N,05022.3704,E,1,4,0.9,50.0,M,0.0,M,,*58
$GPVTG,89.2,T,,M,5.4,N,10.0,K,S*1C
$GPGGA,214219.63,5315.7690,N,05022.3706,E,1,4,0.9,50.0,M,0.0,M,,*51
$GPVTG,89.2,T,,M,5.4,N,10.0,K,S*1C
$GPGGA,214219.73,5315.7691,N,05022.3707,E,1,4,0.9,50.0,M,0.0,M,,*50
$GPVTG,89.2,T,,M,5.4,N,10.0,K,S*1C
$GPGGA,214219.83,5315.7693,N,05022.3709,E,1,4,0.9,50.0,M,0.0,M,,*53
$GPVTG,89.2,T,,M,5.4,N,10.0,K,S*1C
$GPGGA,214219.93,5315.7694,N,05022.3711,E,1,4,0.9,50.0,M,0.0,M,,*5C
$GPVTG,89.2,T,,M,5.4,N,10.0,K,S*1C
$GPGGA,214220.03,5315.7695,N,05022.3713,E,1,4,0.9,50.0,M,0.0,M,,*5C
$GPVTG,89.2,T,,M,5.4,N,10.0,K,S*1C
$GPGGA,214220.13,5315.7696,N,05022.3714,E,1,4,0.9,50.0,M,0.0,M,,*59
$GPVTG,89.2,T,,M,5.4,N,10.0,K,S*1C
$GPGGA,214220.23,5315.7697,N,05022.3716,E,1,4,0.9,50.0,M,0.0,M,,*59
$GPVTG,89.2,T,,M,5.4,N,10.0,K,S*1C
$GPGGA,214220.33,5315.7698,N,05022.3718,E,1,4,0.9,50.0,M,0.0,M,,*59
$GPVTG,89.2,T,,M,5.4,N,10.0,K,S*1C
$GPGGA,214220.43,5315.7699,N,05022.3720,E,1,4,0.9,50.0,M,0.0,M,,*54
$GPVTG,89.2,T,,M,5.4,N,10.0,K,S*1C
$GPGGA,214220.53,5315.7700,N,05022.3722,E,1,4,0.9,50.0,M,0.0,M,,*56
$GPVTG,89.2,T,,M,5.4,N,10.0,K,S*1C
$GPGGA,214220.63,5315.7701,N,05022.3723,E,1,4,0.9,50.0,M,0.0,M,,*55
$GPVTG,89.2,T,,M,5.4,N,10.0,K,S*1C
$GPGGA,214220.73,5315.7702,N,05022.3725,E,1,4,0.9,50.0,M,0.0,M,,*51
$GPVTG,89.2,T,,M,5.4,N,10.0,K,S*1C
$GPGGA,214220.83,5315.7703,N,05022.3727,E,1,4,0.9,50.0,M,0.0,M,,*5D
$GPVTG,89.2,T,,M,5.4,N,10.0,K,S*1C
$GPGGA,214220.93,5315.7704,N,05022.3729,E,1,4,0.9,50.0,M,0.0,M,,*55
$GPVTG,89.2,T,,M,5.4,N,10.0,K,S*1C
$GPGGA,214221.03,5315.7705,N,05022.3730,E,1,4,0.9,50.0,M,0.0,M,,*54
$GPVTG,89.2,T,,M,5.4,N,10.0,K,S*1C
$GPGGA,214221.13,5315.7706,N,05022.3732,E,1,4,0.9,50.0,M,0.0,M,,*54
$GPVTG,89.2,T,,M,5.4,N,10.0,K,S*1C
$GPGGA,214221.23,5315.7707,N,05022.3734,E,1,4,0.9,50.0,M,0.0,M,,*50
$GPVTG,89.2,T,,M,5.4,N,10.0,K,S*1C
$GPGGA,214221.33,5315.7708,N,05022.3736,E,1,4,0.9,50.0,M,0.0,M,,*5C
$GPVTG,89.2,T,,M,5.4,N,10.0,K,S*1C
$GPGGA,214221.43,5315.7709,N,05022.3737,E,1,4,0.9,50.0,M,0.0,M,,*5B
$GPVTG,89.2,T,,M,5.4,N,10.0,K,S*1C
$GPGGA,214221.53,5315.7711,N,05022.3739,E,1,4,0.9,50.0,M,0.0,M,,*5D
$GPVTG,89.2,T,,M,5.4,N,10.0,K,S*1C
$GPGGA,214221.63,5315.7712,N,05022.3741,E,1,4,0.9,50.0,M,0.0,M,,*52
$GPVTG,89.2,T,,M,5.4,N,10.0,K,S*1C
$GPGGA,214221.73,5315.7713,N,05022.3743,E,1,4,0.9,50.0,M,0.0,M,,*50
$GPVTG,89.2,T,,M,5.4,N,10.0,K,S*1C
$GPGGA,214221.83,5315.7714,N,05022.3745,E,1,4,0.9,50.0,M,0.0,M,,*5E
$GPVTG,89.2,T,,M,5.4,N,10.0,K,S*1C
$GPGGA,214221.93,5315.7715,N,05022.3746,E,1,4,0.9,50.0,M,0.0,M,,*5D
$GPVTG,89.2,T,,M,5.4,N,10.0,K,S*1C
$GPGGA,214222.03,5315.7716,N,05022.3748,E,1,4,0.9,50.0,M,0.0,M,,*5A
$GPVTG,89.2,T,,M,5.4,N,10.0,K,S*1C
$GPGGA,214222.13,5315.7717,N,05022.3750,E,1,4,0.9,50.0,M,0.0,M,,*53
$GPVTG,89.2,T,,M,5.4,N,10.0,K,S*1C
$GPGGA,214222.23,5315.7718,N,05022.3752,E,1,4,0.9,50.0,M,0.0,M,,*5D
$GPVTG,89.2,T,,M,5.4,N,10.0,K,S*1C
$GPGGA,214222.33,5315.7719,N,05022.3753,E,1,4,0.9,50.0,M,0.0,M,,*5C
$GPVTG,89.2,T,,M,5.4,N,10.0,K,S*1C
$GPGGA,214222.43,5315.7720,N,05022.3755,E,1,4,0.9,50.0,M,0.0,M,,*57
$GPVTG,89.2,T,,M,5.4,N,10.0,K,S*1C
$GPGGA,214222.53,5315.7721,N,05022.3757,E,1,4,0.9,50.0,M,0.0,M,,*55
$GPVTG,89.2,T,,M,5.4,N,10.0,K,S*1C
$GPGGA,214222.63,5315.7722,N,05022.3759,E,1,4,0.9,50.0,M,0.0,M,,*5B
$GPVTG,89.2,T,,M,5.4,N,10.0,K,S*1C
$GPGGA,214222.73,5315.7723,N,05022.3760,E,1,4,0.9,50.0,M,0.0,M,,*51
$GPVTG,89.2,T,,M,5.4,N,10.0,K,S*1C
$GPGGA,214222.83,5315.7724,N,05022.3762,E,1,4,0.9,50.0,M,0.0,M,,*5B
$GPVTG,89.2,T,,M,5.4,N,10.0,K,S*1C
$GPGGA,214222.93,5315.7725,N,05022.3764,E,1,4,0.9,50.0,M,0.0,M,,*5D
$GPVTG,89.2,T,,M,5.4,N,10.0,K,S*1C
$GPGGA,214223.03,5315.7726,N,05022.3766,E,1,4,0.9,50.0,M,0.0,M,,*54
$GPVTG,89.2,T,,M,5.4,N,10.0,K,S*1C
$GPGGA,214223.14,5315.7727,N,05022.3767,E,1,4,0.9,50.0,M,0.0,M,,*52
$GPVTG,89.2,T,,M,5.4,N,10.0,K,S*1C
$GPGGA,214223.24,5315.7729,N,05022.3769,E,1,4,0.9,50.0,M,0.0,M,,*51
$GPVTG,89.2,T,,M,5.4,N,10.0,K,S*1C
$GPGGA,214223.34,5315.7730,N,05022.3771,E,1,4,0.9,50.0,M,0.0,M,,*51
$GPVTG,89.2,T,,M,5.4,N,10.0,K,S*1C
$GPGGA,214223.44,5315.7731,N,05022.3773,E,1,4,0.9,50.0,M,0.0,M,,*55
$GPVTG,89.2,T,,M,5.4,N,10.0,K,S*1C
$GPGGA,214223.54,5315.7732,N,05022.3775,E,1,4,0.9,50.0,M,0.0,M,,*51
$GPVTG,89.2,T,,M,5.4,N,10.0,K,S*1C
$GPGGA,214223.64,5315.7733,N,05022.3776,E,1,4,0.9,50.0,M,0.0,M,,*50
$GPVTG,89.2,T,,M,5.4,N,10.0,K,S*1C
$GPGGA,214223.74,5315.7734,N,05022.3778,E,1,4,0.9,50.0,M,0.0,M,,*58
$GPVTG,89.2,T,,M,5.4,N,10.0,K,S*1C
$GPGGA,214223.84,5315.7735,N,05022.3780,E,1,4,0.9,50.0,M,0.0,M,,*51
$GPVTG,89.2,T,,M,5.4,N,10.0,K,S*1C
$GPGGA,214223.94,5315.7736,N,05022.3782,E,1,4,0.9,50.0,M,0.0,M,,*51
$GPVTG,89.2,T,,M,5.4,N,10.0,K,S*1C
$GPGGA,214224.04,5315.7737,N,05022.3783,E,1,4,0.9,50.0,M,0.0,M,,*5F
$GPVTG,89.2,T,,M,5.4,N,10.0,K,S*1C
$GPGGA,214224.14,5315.7738,N,05022.3785,E,1,4,0.9,50.0,M,0.0,M,,*57
$GPVTG,89.2,T,,M,5.4,N,10.0,K,S*1C
$GPGGA,214224.24,5315.7739,N,05022.3787,E,1,4,0.9,50.0,M,0.0,M,,*57
$GPVTG,89.2,T,,M,5.4,N,10.0,K,S*1C
$GPGGA,214224.34,5315.7740,N,05022.3789,E,1,4,0.9,50.0,M,0.0,M,,*56
$GPVTG,89.2,T,,M,5.4,N,10.0,K,S*1C
$GPGGA,214224.44,5315.7741,N,05022.3790,E,1,4,0.9,50.0,M,0.0,M,,*58
$GPVTG,89.2,T,,M,5.4,N,10.0,K,S*1C
$GPGGA,214224.54,5315.7742,N,05022.3792,E,1,4,0.9,50.0,M,0.0,M,,*58
$GPVTG,89.2,T,,M,5.4,N,10.0,K,S*1C
$GPGGA,214224.64,5315.7743,N,05022.3794,E,1,4,0.9,50.0,M,0.0,M,,*5C
$GPVTG,89.2,T,,M,5.4,N,10.0,K,S*1C
$GPGGA,214224.74,5315.7744,N,05022.3796,E,1,4,0.9,50.0,M,0.0,M,,*58
$GPVTG,89.2,T,,M,5.4,N,10.0,K,S*1C
$GPGGA,214224.84,5315.7745,N,05022.3797,E,1,4,0.9,50.0,M,0.0,M,,*57
$GPVTG,89.2,T,,M,5.4,N,10.0,K,S*1C
$GPGGA,214224.94,5315.7747,N,05022.3799,E,1,4,0.9,50.0,M,0.0,M,,*5A
$GPVTG,89.2,T,,M,5.4,N,10.0,K,S*1C
$GPGGA,214225.04,5315.7748,N,05022.3801,E,1,4,0.9,50.0,M,0.0,M,,*53
$GPVTG,89.2,T,,M,5.4,N,10.0,K,S*1C
$GPGGA,214225.14,5315.7749,N,05022.3803,E,1,4,0.9,50.0,M,0.0,M,,*51
$GPVTG,89.2,T,,M,5.4,N,10.0,K,S*1C
$GPGGA,214225.24,5315.7750,N,05022.3805,E,1,4,0.9,50.0,M,0.0,M,,*5C
$GPVTG,89.2,T,,M,5.4,N,10.0,K,S*1C
$GPGGA,214225.34,5315.7751,N,05022.3806,E,1,4,0.9,50.0,M,0.0,M,,*5F
$GPVTG,89.2,T,,M,5.4,N,10.0,K,S*1C
$GPGGA,214225.44,5315.7752,N,05022.3808,E,1,4,0.9,50.0,M,0.0,M,,*55
$GPVTG,89.2,T,,M,5.4,N,10.0,K,S*1C
$GPGGA,214225.54,5315.7753,N,05022.3810,E,1,4,0.9,50.0,M,0.0,M,,*5C
$GPVTG,89.2,T,,M,5.4,N,10.0,K,S*1C
$GPGGA,214225.64,5315.7754,N,05022.3812,E,1,4,0.9,50.0,M,0.0,M,,*5A
$GPVTG,89.2,T,,M,5.4,N,10.0,K,S*1C
$GPGGA,214225.74,5315.7755,N,05022.3813,E,1,4,0.9,50.0,M,0.0,M,,*5B
$GPVTG,89.2,T,,M,5.4,N,10.0,K,S*1C
$GPGGA,214225.84,5315.7756,N,05022.3815,E,1,4,0.9,50.0,M,0.0,M,,*51
$GPVTG,89.2,T,,M,5.4,N,10.0,K,S*1C
$GPGGA,214225.94,5315.7757,N,05022.3817,E,1,4,0.9,50.0,M,0.0,M,,*53
$GPVTG,89.2,T,,M,5.4,N,10.0,K,S*1C
$GPGGA,214226.04,5315.7758,N,05022.3819,E,1,4,0.9,50.0,M,0.0,M,,*58
$GPVTG,89.2,T,,M,5.4,N,10.0,K,S*1C
$GPGGA,214226.14,5315.7759,N,05022.3820,E,1,4,0.9,50.0,M,0.0,M,,*52
$GPVTG,89.2,T,,M,5.4,N,10.0,K,S*1C
$GPGGA,214226.24,5315.7760,N,05022.3822,E,1,4,0.9,50.0,M,0.0,M,,*59
$GPVTG,89.2,T,,M,5.4,N,10.0,K,S*1C
$GPGGA,214226.34,5315.7761,N,05022.3824,E,1,4,0.9,50.0,M,0.0,M,,*5F
$GPVTG,89.2,T,,M,5.4,N,10.0,K,S*1C
$GPGGA,214226.44,5315.7762,N,05022.3826,E,1,4,0.9,50.0,M,0.0,M,,*59
$GPVTG,89.2,T,,M,5.4,N,10.0,K,S*1C
$GPGGA,214226.54,5315.7763,N,05022.3828,E,1,4,0.9,50.0,M,0.0,M,,*57
$GPVTG,89.2,T,,M,5.4,N,10.0,K,S*1C
$GPGGA,214226.64,5315.7765,N,05022.3829,E,1,4,0.9,50.0,M,0.0,M,,*53
$GPVTG,89.2,T,,M,5.4,N,10.0,K,S*1C
$GPGGA,214226.74,5315.7766,N,05022.3831,E,1,4,0.9,50.0,M,0.0,M,,*58
$GPVTG,89.2,T,,M,5.4,N,10.0,K,S*1C
$GPGGA,214226.84,5315.7767,N,05022.3833,E,1,4,0.9,50.0,M,0.0,M,,*54
$GPVTG,89.2,T,,M,5.4,N,10.0,K,S*1C
$GPGGA,214226.95,5315.7768,N,05022.3835,E,1,4,0.9,50.0,M,0.0,M,,*5D
$GPVTG,89.2,T,,M,5.4,N,10.0,K,S*1C
$GPGGA,214227.05,5315.7769,N,05022.3836,E,1,4,0.9,50.0,M,0.0,M,,*57
$GPVTG,89.2,T,,M,5.4,N,10.0,K,S*1C
$GPGGA,214227.15,5315.7770,N,05022.3838,E,1,4,0.9,50.0,M,0.0,M,,*50
$GPVTG,89.2,T,,M,5.4,N,10.0,K,S*1C
$GPGGA,214227.25,5315.7771,N,05022.3840,E,1,4,0.9,50.0,M,0.0,M,,*5D
$GPVTG,89.2,T,,M,5.4,N,10.0,K,S*1C
$GPGGA,214227.35,5315.7772,N,05022.3842,E,1,4,0.9,50.0,M,0.0,M,,*5D
$GPVTG,89.2,T,,M,5.4,N,10.0,K,S*1C
$GPGGA,214227.45,5315.7773,N,05022.3843,E,1,4,0.9,50.0,M,0.0,M,,*5A
$GPVTG,89.2,T,,M,5.4,N,10.0,K,S*1C
$GPGGA,214227.55,5315.7774,N,05022.3845,E,1,4,0.9,50.0,M,0.0,M,,*5A
$GPVTG,89.2,T,,M,5.4,N,10.0,K,S*1C
$GPGGA,214227.65,5315.7775,N,05022.3847,E,1,4,0.9,50.0,M,0.0,M,,*5A
$GPVTG,89.2,T,,M,5.4,N,10.0,K,S*1C
$GPGGA,214227.75,5315.7776,N,05022.3849,E,1,4,0.9,50.0,M,0.0,M,,*56
$GPVTG,89.2,T,,M,5.4,N,10.0,K,S*1C
$GPGGA,214227.85,5315.7777,N,05022.3850,E,1,4,0.9,50.0,M,0.0,M,,*50
$GPVTG,89.2,T,,M,5.4,N,10.0,K,S*1C
$GPGGA,214227.95,5315.7778,N,05022.3852,E,1,4,0.9,50.0,M,0.0,M,,*5C
$GPVTG,89.2,T,,M,5.4,N,10.0,K,S*1C
$GPGGA,214228.05,5315.7779,N,05022.3854,E,1,4,0.9,50.0,M,0.0,M,,*5D
$GPVTG,89.2,T,,M,5.4,N,10.0,K,S*1C
$GPGGA,214228.15,5315.7780,N,05022.3856,E,1,4,0.9,50.0,M,0.0,M,,*58
$GPVTG,89.2,T,,M,5.4,N,10.0,K,S*1C
$GPGGA,214228.25,5315.7781,N,05022.3858,E,1,4,0.9,50.0,M,0.0,M,,*54
$GPVTG,89.2,T,,M,5.4,N,10.0,K,S*1C
$GPGGA,214228.35,5315.7783,N,05022.3859,E,1,4,0.9,50.0,M,0.0,M,,*56
$GPVTG,89.2,T,,M,5.4,N,10.0,K,S*1C
$GPGGA,214228.45,5315.7784,N,05022.3861,E,1,4,0.9,50.0,M,0.0,M,,*5D
$GPVTG,89.2,T,,M,5.4,N,10.0,K,S*1C
$GPGGA,214228.55,5315.7785,N,05022.3863,E,1,4,0.9,50.0,M,0.0,M,,*5F
$GPVTG,89.2,T,,M,5.4,N,10.0,K,S*1C
$GPGGA,214228.65,5315.7786,N,05022.3865,E,1,4,0.9,50.0,M,0.0,M,,*59
$GPVTG,89.2,T,,M,5.4,N,10.0,K,S*1C
$GPGGA,214228.75,5315.7787,N,05022.3866,E,1,4,0.9,50.0,M,0.0,M,,*5A
$GPVTG,89.2,T,,M,5.4,N,10.0,K,S*1C
$GPGGA,214228.85,5315.7788,N,05022.3868,E,1,4,0.9,50.0,M,0.0,M,,*54
$GPVTG,89.2,T,,M,5.4,N,10.0,K,S*1C
$GPGGA,214228.95,5315.7789,N,05022.3870,E,1,4,0.9,50.0,M,0.0,M,,*5D
$GPVTG,89.2,T,,M,5.4,N,10.0,K,S*1C
$GPGGA,214229.05,5315.7790,N,05022.3872,E,1,4,0.9,50.0,M,0.0,M,,*5F
$GPVTG,89.2,T,,M,5.4,N,10.0,K,S*1C
$GPGGA,214229.15,5315.7791,N,05022.3873,E,1,4,0.9,50.0,M,0.0,M,,*5E
$GPVTG,89.2,T,,M,5.4,N,10.0,K,S*1C
$GPGGA,214229.25,5315.7792,N,05022.3875,E,1,4,0.9,50.0,M,0.0,M,,*58
$GPVTG,89.2,T,,M,5.4,N,10.0,K,S*1C
$GPGGA,214229.35,5315.7793,N,05022.3877,E,1,4,0.9,50.0,M,0.0,M,,*5A
$GPVTG,89.2,T,,M,5.4,N,10.0,K,S*1C
$GPGGA,214229.45,5315.7794,N,05022.3879,E,1,4,0.9,50.0,M,0.0,M,,*54
$GPVTG,89.2,T,,M,5.4,N,10.0,K,S*1C
$GPGGA,214229.55,5315.7795,N,05022.3881,E,1,4,0.9,50.0,M,0.0,M,,*53
$GPVTG,89.2,T,,M,5.4,N,10.0,K,S*1C
$GPGGA,214229.65,5315.7796,N,05022.3882,E,1,4,0.9,50.0,M,0.0,M,,*50
$GPVTG,89.2,T,,M,5.4,N,10.0,K,S*1C
$GPGGA,214229.75,5315.7797,N,05022.3884,E,1,4,0.9,50.0,M,0.0,M,,*56
$GPVTG,89.2,T,,M,5.4,N,10.0,K,S*1C
$GPGGA,214229.85,5315.7798,N,05022.3886,E,1,4,0.9,50.0,M,0.0,M,,*54
$GPVTG,89.2,T,,M,5.4,N,10.0,K,S*1C
$GPGGA,214229.95,5315.7799,N,05022.3888,E,1,4,0.9,50.0,M,0.0,M,,*5A
$GPVTG,89.2,T,,M,5.4,N,10.0,K,S*1C
$GPGGA,214230.05,5315.7801,N,05022.3889,E,1,4,0.9,50.0,M,0.0,M,,*54
$GPVTG,89.2,T,,M,5.4,N,10.0,K,S*1C
$GPGGA,214230.15,5315.7802,N,05022.3891,E,1,4,0.9,50.0,M,0.0,M,,*5F
$GPVTG,89.2,T,,M,5.4,N,10.0,K,S*1C
$GPGGA,214230.25,5315.7803,N,05022.3893,E,1,4,0.9,50.0,M,0.0,M,,*5F
$GPVTG,89.2,T,,M,5.4,N,10.0,K,S*1C
$GPGGA,214230.35,5315.7804,N,05022.3895,E,1,4,0.9,50.0,M,0.0,M,,*5F
$GPVTG,89.2,T,,M,5.4,N,10.0,K,S*1C
$GPGGA,214230.45,5315.7805,N,05022.3896,E,1,4,0.9,50.0,M,0.0,M,,*5A
$GPVTG,89.2,T,,M,5.4,N,10.0,K,S*1C
$GPGGA,214230.55,5315.7806,N,05022.3898,E,1,4,0.9,50.0,M,0.0,M,,*56
$GPVTG,89.2,T,,M,5.4,N,10.0,K,S*1C
$GPGGA,214230.65,5315.7807,N,05022.3900,E,1,4,0.9,50.0,M,0.0,M,,*54
$GPVTG,89.2,T,,M,5.4,N,10.0,K,S*1C
$GPGGA,214230.75,5315.7808,N,05022.3902,E,1,4,0.9,50.0,M,0.0,M,,*58
$GPVTG,89.2,T,,M,5.4,N,10.0,K,S*1C
$GPGGA,214230.85,5315.7809,N,05022.3903,E,1,4,0.9,50.0,M,0.0,M,,*57
$GPVTG,89.2,T,,M,5.4,N,10.0,K,S*1C
$GPGGA,214230.95,5315.7810,N,05022.3905,E,1,4,0.9,50.0,M,0.0,M,,*58
$GPVTG,89.2,T,,M,5.4,N,10.0,K,S*1C
$GPGGA,214231.05,5315.7811,N,05022.3907,E,1,4,0.9,50.0,M,0.0,M,,*53
$GPVTG,89.2,T,,M,5.4,N,10.0,K,S*1C
$GPGGA,214231.15,5315.7812,N,05022.3909,E,1,4,0.9,50.0,M,0.0,M,,*5F
$GPVTG,89.2,T,,M,5.4,N,10.0,K,S*1C
$GPGGA,214231.25,5315.7813,N,05022.3911,E,1,4,0.9,50.0,M,0.0,M,,*54
$GPVTG,89.2,T,,M,5.4,N,10.0,K,S*1C
$GPGGA,214231.35,5315.7814,N,05022.3912,E,1,4,0.9,50.0,M,0.0,M,,*51
$GPVTG,89.2,T,,M,5.4,N,10.0,K,S*1C
$GPGGA,214231.45,5315.7815,N,05022.3914,E,1,4,0.9,50.0,M,0.0,M,,*51
$GPVTG,89.2,T,,M,5.4,N,10.0,K,S*1C
$GPGGA,214231.55,5315.7816,N,05022.3916,E,1,4,0.9,50.0,M,0.0,M,,*51
$GPVTG,89.2,T,,M,5.4,N,10.0,K,S*1C
$GPGGA,214231.65,5315.7817,N,05022.3918,E,1,4,0.9,50.0,M,0.0,M,,*5D
$GPVTG,89.2,T,,M,5.4,N,10.0,K,S*1C
$GPGGA,214231.75,5315.7819,N,05022.3919,E,1,4,0.9,50.0,M,0.0,M,,*53
$GPVTG,89.2,T,,M,5.4,N,10.0,K,S*1C
$GPGGA,214231.86,5315.7820,N,05022.3921,E,1,4,0.9,50.0,M,0.0,M,,*5E
$GPVTG,89.2,T,,M,5.4,N,10.0,K,S*1C
$GPGGA,214231.96,5315.7821,N,05022.3923,E,1,4,0.9,50.0,M,0.0,M,,*5C
$GPVTG,89.2,T,,M,5.4,N,10.0,K,S*1C
$GPGGA,214232.06,5315.7822,N,05022.3925,E,1,4,0.9,50.0,M,0.0,M,,*53
$GPVTG,89.2,T,,M,5.4,N,10.0,K,S*1C
$GPGGA,214232.16,5315.7823,N,05022.3926,E,1,4,0.9,50.0,M,0.0,M,,*50
$GPVTG,89.2,T,,M,5.4,N,10.0,K,S*1C
$GPGGA,214232.26,5315.7824,N,05022.3928,E,1,4,0.9,50.0,M,0.0,M,,*5A
$GPVTG,89.2,T,,M,5.4,N,10.0,K,S*1C
$GPGGA,214232.36,5315.7825,N,05022.3930,E,1,4,0.9,50.0,M,0.0,M,,*53
$GPVTG,89.2,T,,M,5.4,N,10.0,K,S*1C
$GPGGA,214232.46,5315.7826,N,05022.3932,E,1,4,0.9,50.0,M,0.0,M,,*55
$GPVTG,89.2,T,,M,5.4,N,10.0,K,S*1C
$GPGGA,214232.56,5315.7827,N,05022.3933,E,1,4,0.9,50.0,M,0.0,M,,*54
$GPVTG,89.2,T,,M,5.4,N,10.0,K,S*1C
$GPGGA,214232.66,5315.7828,N,05022.3935,E,1,4,0.9,50.0,M,0.0,M,,*5E
$GPVTG,89.2,T,,M,5.4,N,10.0,K,S*1C
$GPGGA,214232.76,5315.7829,N,05022.3937,E,1,4,0.9,50.0,M,0.0,M,,*5C
$GPVTG,89.2,T,,M,5.4,N,10.0,K,S*1C
$GPGGA,214232.86,5315.7830,N,05022.3939,E,1,4,0.9,50.0,M,0.0,M,,*55
$GPVTG,89.2,T,,M,5.4,N,10.0,K,S*1C
$GPGGA,214232.96,5315.7831,N,05022.3941,E,1,4,0.9,50.0,M,0.0,M,,*5A
$GPVTG,89.2,T,,M,5.4,N,10.0,K,S*1C
$GPG