$GPGGA,214137.94,5315.7667,N,05022.3667,E,1,4,0.9,50.0,M,0.0,M,,*58
$GPVTG,89.5,T,,M,5.4,N,10.0,K,S*1B
$GPGGA,214138.04,5315.7668,N,05022.3669,E,1,4,0.9,50.0,M,0.0,M,,*5F
$GPVTG,89.5,T,,M,5.4,N,10.0,K,S*1B
$GPGGA,214138.14,5315.7669,N,05022.3671,E,1,4,0.9,50.0,M,0.0,M,,*56
$GPVTG,89.4,T,,M,5.4,N,10.0,K,S*1A
$GPGGA,214138.24,5315.7669,N,05022.3673,E,1,4,0.9,50.0,M,0.0,M,,*57
$GPVTG,89.4,T,,M,5.4,N,10.0,K,S*1A
$GPGGA,214138.34,5315.7670,N,05022.3675,E,1,4,0.9,50.0,M,0.0,M,,*58
$GPVTG,89.4,T,,M,5.4,N,10.0,K,S*1A
$GPGGA,214138.44,5315.7671,N,05022.3677,E,1,4,0.9,50.0,M,0.0,M,,*5C
$GPVTG,89.4,T,,M,5.4,N,10.0,K,S*1A
$GPGGA,214138.54,5315.7672,N,05022.3679,E,1,4,0.9,50.0,M,0.0,M,,*50
$GPVTG,89.4,T,,M,5.4,N,10.0,K,S*1A
$GPGGA,214138.64,5315.7673,N,05022.3681,E,1,4,0.9,50.0,M,0.0,M,,*55
$GPVTG,89.4,T,,M,5.4,N,10.0,K,S*1A
$GPGGA,214138.74,5315.7674,N,05022.3683,E,1,4,0.9,50.0,M,0.0,M,,*51
$GPVTG,89.4,T,,M,5.4,N,10.0,K,S*1A
$GPGGA,214138.84,5315.7675,N,05022.3685,E,1,4,0.9,50.0,M,0.0,M,,*59
$GPVTG,89.3,T,,M,5.4,N,10.0,K,S*1D
$GPGGA,214138.94,5315.7675,N,05022.3687,E,1,4,0.9,50.0,M,0.0,M,,*5A
$GPVTG,89.3,T,,M,5.4,N,10.0,K,S*1D
$GPGGA,214139.04,5315.7676,N,05022.3689,E,1,4,0.9,50.0,M,0.0,M,,*5F
$GPVTG,89.3,T,,M,5.4,N,10.0,K,S*1D
$GPGGA,214139.14,5315.7677,N,05022.3691,E,1,4,0.9,50.0,M,0.0,M,,*56
$GPVTG,89.3,T,,M,5.4,N,10.0,K,S*1D
$GPGGA,214139.25,5315.7678,N,05022.3693,E,1,4,0.9,50.0,M,0.0,M,,*59
$GPVTG,89.3,T,,M,5.4,N,10.0,K,S*1D
$GPGGA,214139.35,5315.7679,N,05022.3695,E,1,4,0.9,50.0,M,0.0,M,,*5F
$GPVTG,89.3,T,,M,5.4,N,10.0,K,S*1D
$GPGGA,214139.45,5315.7680,N,05022.3697,E,1,4,0.9,50.0,M,0.0,M,,*5C
$GPVTG,89.3,T,,M,5.4,N,10.0,K,S*1D
$GPGGA,214139.55,5315.7681,N,05022.3699,E,1,4,0.9,50.0,M,0.0,M,,*52
$GPVTG,89.2,T,,M,5.4,N,10.0,K,S*1C
$GPGGA,214139.65,5315.7682,N,05022.3701,E,1,4,0.9,50.0,M,0.0,M,,*52
$GPVTG,89.2,T,,M,5.4,N,10.0,K,S*1C
$GPGGA,214139.75,5315.7683,N,05022.3702,E,1,4,0.9,50.0,M,0.0,M,,*51
$GPVTG,89.2,T,,M,5.4,N,10.0,K,S*1C
$GPGGA,214139.85,5315.7685,N,05022.3704,E,1,4,0.9,50.0,M,0.0,M,,*5E
$GPVTG,89.2,T,,M,5.4,N,10.0,K,S*1C
$GPGGA,214139.95,5315.7686,N,05022.3706,E,1,4,0.9,50.0,M,0.0,M,,*5E
$GPVTG,89.2,T,,M,5.4,N,10.0,K,S*1C
$GPGGA,214140.05,5315.7687,N,05022.3708,E,1,4,0.9,50.0,M,0.0,M,,*56
$GPVTG,89.2,T,,M,5.4,N,10.0,K,S*1C
$GPGGA,214140.15,5315.7688,N,05022.3709,E,1,4,0.9,50.0,M,0.0,M,,*59
$GPVTG,89.2,T,,M,5.4,N,10.0,K,S*1C
$GPGGA,214140.25,5315.7689,N,05022.3711,E,1,4,0.9,50.0,M,0.0,M,,*52
$GPVTG,89.1,T,,M,5.4,N,10.0,K,S*1F
$GPGGA,214140.35,5315.7690,N,05022.3712,E,1,4,0.9,50.0,M,0.0,M,,*58
$GPVTG,89.1,T,,M,5.4,N,10.0,K,S*1F
$GPGGA,214140.45,5315.7691,N,05022.3714,E,1,4,0.9,50.0,M,0.0,M,,*58
$GPVTG,89.1,T,,M,5.4,N,10.0,K,S*1F
$GPGGA,214140.55,5315.7692,N,05022.3716,E,1,4,0.9,50.0,M,0.0,M,,*58
$GPVTG,89.1,T,,M,5.4,N,10.0,K,S*1F
$GPGGA,214140.65,5315.7694,N,05022.3717,E,1,4,0.9,50.0,M,0.0,M,,*5C
$GPVTG,89.1,T,,M,5.4,N,10.0,K,S*1F
$GPGGA,214140.75,5315.7695,N,05022.3719,E,1,4,0.9,50.0,M,0.0,M,,*52
$GPVTG,89.1,T,,M,5.4,N,10.0,K,S*1F
$GPGGA,214140.85,5315.7696,N,05022.3720,E,1,4,0.9,50.0,M,0.0,M,,*54
$GPVTG,89.1,T,,M,5.4,N,10.0,K,S*1F
$GPGGA,214140.95,5315.7697,N,05022.3722,E,1,4,0.9,50.0,M,0.0,M,,*56
$GPVTG,89.0,T,,M,5.4,N,10.0,K,S*1E
$GPGGA,214141.05,5315.7698,N,05022.3723,E,1,4,0.9,50.0,M,0.0,M,,*50
$GPVTG,89.0,T,,M,5.4,N,10.0,K,S*1E
$GPGGA,214141.15,5315.7700,N,05022.3724,E,1,4,0.9,50.0,M,0.0,M,,*56
$GPVTG,89.0,T,,M,5.4,N,10.0,K,S*1E
$GPGGA,214141.25,5315.7701,N,05022.3726,E,1,4,0.9,50.0,M,0.0,M,,*56
$GPVTG,89.0,T,,M,5.4,N,10.0,K,S*1E
$GPGGA,214141.35,5315.7702,N,05022.3727,E,1,4,0.9,50.0,M,0.0,M,,*55
$GPVTG,89.0,T,,M,5.4,N,10.0,K,S*1E
$GPGGA,214141.45,5315.7704,N,05022.3728,E,1,4,0.9,50.0,M,0.0,M,,*5B
$GPVTG,89.0,T,,M,5.4,N,10.0,K,S*1E
$GPGGA,214141.55,5315.7705,N,05022.3730,E,1,4,0.9,50.0,M,0.0,M,,*52
$GPVTG,89.0,T,,M,5.4,N,10.0,K,S*1E
$GPGGA,214141.65,5315.7706,N,05022.3731,E,1,4,0.9,50.0,M,0.0,M,,*53
$GPVTG,88.9,T,,M,5.4,N,10.0,K,S*16
$GPGGA,214141.75,5315.7707,N,05022.3732,E,1,4,0.9,50.0,M,0.0,M,,*50
$GPVTG,88.9,T,,M,5.4,N,10.0,K,S*16
$GPGGA,214141.85,5315.7709,N,05022.3733,E,1,4,0.9,50.0,M,0.0,M,,*50
$GPVTG,88.9,T,,M,5.4,N,10.0,K,S*16
$GPGGA,214141.95,5315.7710,N,05022.3734,E,1,4,0.9,50.0,M,0.0,M,,*5E
$GPVTG,88.9,T,,M,5.4,N,10.0,K,S*16
$GPGGA,214142.05,5315.7711,N,05022.3735,E,1,4,0.9,50.0,M,0.0,M,,*54
$GPVTG,88.9,T,,M,5.4,N,10.0,K,S*16
$GPGGA,214142.15,5315.7713,N,05022.3736,E,1,4,0.9,50.0,M,0.0,M,,*54
$GPVTG,88.9,T,,M,5.4,N,10.0,K,S*16
$GPGGA,214142.25,5315.7714,N,05022.3738,E,1,4,0.9,50.0,M,0.0,M,,*5E
$GPVTG,88.8,T,,M,5.4,N,10.0,K,S*17
$GPGGA,214142.35,5315.7716,N,05022.3739,E,1,4,0.9,50.0,M,0.0,M,,*5C
$GPVTG,88.8,T,,M,5.4,N,10.0,K,S*17
$GPGGA,214142.45,5315.7717,N,05022.3739,E,1,4,0.9,50.0,M,0.0,M,,*5A
$GPVTG,88.8,T,,M,5.4,N,10.0,K,S*17
$GPGGA,214142.55,5315.7718,N,05022.3740,E,1,4,0.9,50.0,M,0.0,M,,*5A
$GPVTG,88.8,T,,M,5.4,N,10.0,K,S*17
$GPGGA,214142.65,5315.7720,N,05022.3741,E,1,4,0.9,50.0,M,0.0,M,,*53
$GPVTG,88.8,T,,M,5.4,N,10.0,K,S*17
$GPGGA,214142.75,5315.7721,N,05022.3742,E,1,4,0.9,50.0,M,0.0,M,,*50
$GPVTG,88.8,T,,M,5.4,N,10.0,K,S*17
$GPGGA,214142.85,5315.7723,N,05022.3743,E,1,4,0.9,50.0,M,0.0,M,,*5C
$GPVTG,88.8,T,,M,5.4,N,10.0,K,S*17
$GPGGA,214142.95,5315.7724,N,05022.3744,E,1,4,0.9,50.0,M,0.0,M,,*5D
$GPVTG,88.7,T,,M,5.4,N,10.0,K,S*18
$GPGGA,214143.05,5315.7725,N,05022.3745,E,1,4,0.9,50.0,M,0.0,M,,*55
$GPVTG,88.7,T,,M,5.4,N,10.0,K,S*18
$GPGGA,214143.15,5315.7727,N,05022.3745,E,1,4,0.9,50.0,M,0.0,M,,*56
$GPVTG,88.7,T,,M,5.4,N,10.0,K,S*18
$GPGGA,214143.25,5315.7728,N,05022.3746,E,1,4,0.9,50.0,M,0.0,M,,*59
$GPVTG,88.7,T,,M,5.4,N,10.0,K,S*18
$GPGGA,214143.35,5315.7730,N,05022.3747,E,1,4,0.9,50.0,M,0.0,M,,*50
$GPVTG,88.7,T,,M,5.4,N,10.0,K,S*18
$GPGGA,214143.45,5315.7731,N,05022.3747,E,1,4,0.9,50.0,M,0.0,M,,*56
$GPVTG,88.7,T,,M,5.4,N,10.0,K,S*18
$GPGGA,214143.55,5315.7733,N,05022.3748,E,1,4,0.9,50.0,M,0.0,M,,*5A
$GPVTG,88.7,T,,M,5.4,N,10.0,K,S*18
$GPGGA,214143.65,5315.7734,N,05022.3748,E,1,4,0.9,50.0,M,0.0,M,,*5E
$GPVTG,88.6,T,,M,5.4,N,10.0,K,S*19
$GPGGA,214143.75,5315.7736,N,05022.3749,E,1,4,0.9,50.0,M,0.0,M,,*5C
$GPVTG,88.6,T,,M,5.4,N,10.0,K,S*19
$GPGGA,214143.85,5315.7737,N,05022.3749,E,1,4,0.9,50.0,M,0.0,M,,*52
$GPVTG,88.6,T,,M,5.4,N,10.0,K,S*19
$GPGGA,214143.95,5315.7738,N,05022.3750,E,1,4,0.9,50.0,M,0.0,M,,*54
$GPVTG,88.6,T,,M,5.4,N,10.0,K,S*19
$GPGGA,214144.05,5315.7740,N,05022.3750,E,1,4,0.9,50.0,M,0.0,M,,*55
$GPVTG,88.6,T,,M,5.4,N,10.0,K,S*19
$GPGGA,214144.15,5315.7741,N,05022.3751,E,1,4,0.9,50.0,M,0.0,M,,*54
$GPVTG,88.6,T,,M,5.4,N,10.0,K,S*19
$GPGGA,214144.25,5315.7743,N,05022.3751,E,1,4,0.9,50.0,M,0.0,M,,*55
$GPVTG,88.6,T,,M,5.4,N,10.0,K,S*19
$GPGGA,214144.35,5315.7744,N,05022.3751,E,1,4,0.9,50.0,M,0.0,M,,*53
$GPVTG,88.5,T,,M,5.4,N,10.0,K,S*1A
$GPGGA,214144.46,5315.7746,N,05022.3752,E,1,4,0.9,50.0,M,0.0,M,,*56
$GPVTG,88.5,T,,M,5.4,N,10.0,K,S*1A
$GPGGA,214144.56,5315.7747,N,05022.3752,E,1,4,0.9,50.0,M,0.0,M,,*56
$GPVTG,88.5,T,,M,5.4,N,10.0,K,S*1A
$GPGGA,214144.66,5315.7749,N,05022.3752,E,1,4,0.9,50.0,M,0.0,M,,*5B
$GPVTG,88.5,T,,M,5.4,N,10.0,K,S*1A
$GPGGA,214144.76,5315.7750,N,05022.3752,E,1,4,0.9,50.0,M,0.0,M,,*52
$GPVTG,88.5,T,,M,5.4,N,10.0,K,S*1A
$GPGGA,214144.86,5315.7752,N,05022.3752,E,1,4,0.9,50.0,M,0.0,M,,*5F
$GPVTG,88.5,T,,M,5.4,N,10.0,K,S*1A
$GPGGA,214144.96,5315.7753,N,05022.3752,E,1,4,0.9,50.0,M,0.0,M,,*5F
$GPVTG,88.5,T,,M,5.4,N,10.0,K,S*1A
$GPGGA,214145.06,5315.7755,N,05022.3752,E,1,4,0.9,50.0,M,0.0,M,,*51
$GPVTG,88.4,T,,M,5.4,N,10.0,K,S*1B
$GPGGA,214145.16,5315.7756,N,05022.3752,E,1,4,0.9,50.0,M,0.0,M,,*53
$GPVTG,88.4,T,,M,5.4,N,10.0,K,S*1B
$GPGGA,214145.26,5315.7758,N,05022.3752,E,1,4,0.9,50.0,M,0.0,M,,*5E
$GPVTG,88.4,T,,M,5.4,N,10.0,K,S*1B
$GPGGA,214145.36,5315.7759,N,05022.3752,E,1,4,0.9,50.0,M,0.0,M,,*5E
$GPVTG,88.4,T,,M,5.4,N,10.0,K,S*1B
$GPGGA,214145.46,5315.7761,N,05022.3752,E,1,4,0.9,50.0,M,0.0,M,,*52
$GPVTG,88.4,T,,M,5.4,N,10.0,K,S*1B
$GPGGA,214145.56,5315.7762,N,05022.3752,E,1,4,0.9,50.0,M,0.0,M,,*50
$GPVTG,88.4,T,,M,5.4,N,10.0,K,S*1B
$GPGGA,214145.66,5315.7764,N,05022.3752,E,1,4,0.9,50.0,M,0.0,M,,*55
$GPVTG,88.4,T,,M,5.4,N,10.0,K,S*1B
$GPGGA,214145.76,5315.7765,N,05022.3752,E,1,4,0.9,50.0,M,0.0,M,,*55
$GPVTG,88.3,T,,M,5.4,N,10.0,K,S*1C
$GPGGA,214145.86,5315.7767,N,05022.3751,E,1,4,0.9,50.0,M,0.0,M,,*5B
$GPVTG,88.3,T,,M,5.4,N,10.0,K,S*1C
$GPGGA,214145.96,5315.7768,N,05022.3751,E,1,4,0.9,50.0,M,0.0,M,,*55
$GPVTG,88.3,T,,M,5.4,N,10.0,K,S*1C
$GPGGA,214146.06,5315.7770,N,05022.3751,E,1,4,0.9,50.0,M,0.0,M,,*56
$GPVTG,88.3,T,,M,5.4,N,10.0,K,S*1C
$GPGGA,214146.16,5315.7771,N,05022.3750,E,1,4,0.9,50.0,M,0.0,M,,*57
$GPVTG,88.3,T,,M,5.4,N,10.0,K,S*1C
$GPGGA,214146.26,5315.7773,N,05022.3750,E,1,4,0.9,50.0,M,0.0,M,,*56
$GPVTG,88.3,T,,M,5.4,N,10.0,K,S*1C
$GPGGA,214146.36,5315.7774,N,05022.3750,E,1,4,0.9,50.0,M,0.0,M,,*50
$GPVTG,88.3,T,,M,5.4,N,10.0,K,S*1C
$GPGGA,214146.46,5315.7776,N,05022.3749,E,1,4,0.9,50.0,M,0.0,M,,*5D
$GPVTG,88.2,T,,M,5.4,N,10.0,K,S*1D
$GPGGA,214146.56,5315.7777,N,05022.3749,E,1,4,0.9,50.0,M,0.0,M,,*5D
$GPVTG,88.2,T,,M,5.4,N,10.0,K,S*1D
$GPGGA,214146.66,5315.7779,N,05022.3748,E,1,4,0.9,50.0,M,0.0,M,,*51
$GPVTG,88.2,T,,M,5.4,N,10.0,K,S*1D
$GPGGA,214146.76,5315.7780,N,05022.3748,E,1,4,0.9,50.0,M,0.0,M,,*56
$GPVTG,88.2,T,,M,5.4,N,10.0,K,S*1D
$GPGGA,214146.86,5315.7782,N,05022.3747,E,1,4,0.9,50.0,M,0.0,M,,*54
$GPVTG,88.2,T,,M,5.4,N,10.0,K,S*1D
$GPGGA,214146.96,5315.7783,N,05022.3746,E,1,4,0.9,50.0,M,0.0,M,,*55
$GPVTG,88.2,T,,M,5.4,N,10.0,K,S*1D
$GPGGA,214147.06,5315.7784,N,05022.3746,E,1,4,0.9,50.0,M,0.0,M,,*5A
$GPVTG,88.1,T,,M,5.4,N,10.0,K,S*1E
$GPGGA,214147.16,5315.7786,N,05022.3745,E,1,4,0.9,50.0,M,0.0,M,,*5A
$GPVTG,88.1,T,,M,5.4,N,10.0,K,S*1E
$GPGGA,214147.26,5315.7787,N,05022.3744,E,1,4,0.9,50.0,M,0.0,M,,*59
$GPVTG,88.1,T,,M,5.4,N,10.0,K,S*1E
$GPGGA,214147.36,5315.7789,N,05022.3743,E,1,4,0.9,50.0,M,0.0,M,,*51
$GPVTG,88.1,T,,M,5.4,N,10.0,K,S*1E
$GPGGA,214147.46,5315.7790,N,05022.3743,E,1,4,0.9,50.0,M,0.0,M,,*5E
$GPVTG,88.1,T,,M,5.4,N,10.0,K,S*1E
$GPGGA,214147.56,5315.7792,N,05022.3742,E,1,4,0.9,50.0,M,0.0,M,,*5C
$GPVTG,88.1,T,,M,5.4,N,10.0,K,S*1E
$GPGGA,214147.66,5315.7793,N,05022.3741,E,1,4,0.9,50.0,M,0.0,M,,*5D
$GPVTG,88.1,T,,M,5.4,N,10.0,K,S*1E
$GPGGA,214147.76,5315.7794,N,05022.3740,E,1,4,0.9,50.0,M,0.0,M,,*5A
$GPVTG,88.0,T,,M,5.4,N,10.0,K,S*1F
$GPGGA,214147.86,5315.7796,N,05022.3739,E,1,4,0.9,50.0,M,0.0,M,,*59
$GPVTG,88.0,T,,M,5.4,N,10.0,K,S*1F
$GPGGA,214147.96,5315.7797,N,05022.3738,E,1,4,0.9,50.0,M,0.0,M,,*58
$GPVTG,88.0,T,,M,5.4,N,10.0,K,S*1F
$GPGGA,214148.06,5315.7798,N,05022.3737,E,1,4,0.9,50.0,M,0.0,M,,*5E
$GPVTG,88.0,T,,M,5.4,N,10.0,K,S*1F
$GPGGA,214148.16,5315.7800,N,05022.3736,E,1,4,0.9,50.0,M,0.0,M,,*50
$GPVTG,88.0,T,,M,5.4,N,10.0,K,S*1F
$GPGGA,214148.26,5315.7801,N,05022.3735,E,1,4,0.9,50.0,M,0.0,M,,*51
$GPVTG,88.0,T,,M,5.4,N,10.0,K,S*1F
$GPGGA,214148.36,5315.7802,N,05022.3734,E,1,4,0.9,50.0,M,0.0,M,,*52
$GPVTG,88.0,T,,M,5.4,N,10.0,K,S*1F
$GPGGA,214148.46,5315.7804,N,05022.3733,E,1,4,0.9,50.0,M,0.0,M,,*54
$GPVTG,87.9,T,,M,5.4,N,10.0,K,S*19
$GPGGA,214148.57,5315.7805,N,05022.3731,E,1,4,0.9,50.0,M,0.0,M,,*57
$GPVTG,87.9,T,,M,5.4,N,10.0,K,S*19
$GPGGA,214148.67,5315.7806,N,05022.3730,E,1,4,0.9,50.0,M,0.0,M,,*56
$GPVTG,87.9,T,,M,5.4,N,10.0,K,S*19
$GPGGA,214148.77,5315.7808,N,05022.3729,E,1,4,0.9,50.0,M,0.0,M,,*51
$GPVTG,87.9,T,,M,5.4,N,10.0,K,S*19
$GPGGA,214148.87,5315.7809,N,05022.3728,E,1,4,0.9,50.0,M,0.0,M,,*5E
$GPVTG,87.9,T,,M,5.4,N,10.0,K,S*19
$GPGGA,214148.97,5315.7810,N,05022.3726,E,1,4,0.9,50.0,M,0.0,M,,*59
$GPVTG,87.9,T,,M,5.4,N,10.0,K,S*19
$GPGGA,214149.07,5315.7812,N,05022.3725,E,1,4,0.9,50.0,M,0.0,M,,*50
$GPVTG,87.9,T,,M,5.4,N,10.0,K,S*19
$GPGGA,214149.17,5315.7813,N,05022.3724,E,1,4,0.9,50.0,M,0.0,M,,*51
$GPVTG,87.8,T,,M,5.4,N,10.0,K,S*18
$GPGGA,214149.27,5315.7814,N,05022.3722,E,1,4,0.9,50.0,M,0.0,M,,*53
$GPVTG,87.8,T,,M,5.4,N,10.0,K,S*18
$GPGGA,214149.37,5315.7815,N,05022.3721,E,1,4,0.9,50.0,M,0.0,M,,*50
$GPVTG,87.8,T,,M,5.4,N,10.0,K,S*18
$GPGGA,214149.47,5315.7817,N,05022.3719,E,1,4,0.9,50.0,M,0.0,M,,*5E
$GPVTG,87.8,T,,M,5.4,N,10.0,K,S*18
$GPGGA,214149.57,5315.7818,N,05022.3718,E,1,4,0.9,50.0,M,0.0,M,,*51
$GPVTG,87.8,T,,M,5.4,N,10.0,K,S*18
$GPGGA,214149.67,5315.7819,N,05022.3716,E,1,4,0.9,50.0,M,0.0,M,,*5D
$GPVTG,87.8,T,,M,5.4,N,10.0,K,S*18
$GPGGA,214149.77,5315.7820,N,05022.3715,E,1,4,0.9,50.0,M,0.0,M,,*55
$GPVTG,87.8,T,,M,5.4,N,10.0,K,S*18
$GPGGA,214149.87,5315.7821,N,05022.3713,E,1,4,0.9,50.0,M,0.0,M,,*5D
$GPVTG,87.7,T,,M,5.4,N,10.0,K,S*17
$GPGGA,214149.97,5315.7822,N,05022.3712,E,1,4,0.9,50.0,M,0.0,M,,*5E
$GPVTG,87.7,T,,M,5.4,N,10.0,K,S*17
$GPGGA,214150.07,5315.7824,N,05022.3710,E,1,4,0.9,50.0,M,0.0,M,,*5B
$GPVTG,87.7,T,,M,5.4,N,10.0,K,S*17
$GPGGA,214150.17,5315.7825,N,05022.3708,E,1,4,0.9,50.0,M,0.0,M,,*52
$GPVTG,87.7,T,,M,5.4,N,10.0,K,S*17
$GPGGA,214150.27,5315.7826,N,05022.3707,E,1,4,0.9,50.0,M,0.0,M,,*5D
$GPVTG,87.7,T,,M,5.4,N,10.0,K,S*17
$GPGGA,214150.37,5315.7827,N,05022.3705,E,1,4,0.9,50.0,M,0.0,M,,*5F
$GPVTG,87.7,T,,M,5.4,N,10.0,K,S*17
$GPGGA,214150.47,5315.7828,N,05022.3703,E,1,4,0.9,50.0,M,0.0,M,,*51
$GPVTG,87.7,T,,M,5.4,N,10.0,K,S*17
$GPGGA,214150.57,5315.7829,N,05022.3701,E,1,4,0.9,50.0,M,0.0,M,,*53
$GPVTG,87.6,T,,M,5.4,N,10.0,K,S*16
$GPGGA,214150.67,5315.7830,N,05022.3700,E,1,4,0.9,50.0,M,0.0,M,,*59
$GPVTG,87.6,T,,M,5.4,N,10.0,K,S*16
$GPGGA,214150.77,5315.7831,N,05022.3698,E,1,4,0.9,50.0,M,0.0,M,,*59
$GPVTG,87.6,T,,M,5.4,N,10.0,K,S*16
$GPGGA,214150.87,5315.7832,N,05022.3696,E,1,4,0.9,50.0,M,0.0,M,,*5B
$GPVTG,87.6,T,,M,5.4,N,10.0,K,S*16
$GPGGA,214150.97,5315.7833,N,05022.3694,E,1,4,0.9,50.0,M,0.0,M,,*59
$GPVTG,87.6,T,,M,5.4,N,10.0,K,S*16
$GPGGA,214151.07,5315.7834,N,05022.3692,E,1,4,0.9,50.0,M,0.0,M,,*50
$GPVTG,87.6,T,,M,5.4,N,10.0,K,S*16
$GPGGA,214151.17,5315.7835,N,05022.3690,E,1,4,0.9,50.0,M,0.0,M,,*52
$GPVTG,87.5,T,,M,5.4,N,10.0,K,S*15
$GPGGA,214151.27,5315.7836,N,05022.3688,E,1,4,0.9,50.0,M,0.0,M,,*5B
$GPVTG,87.5,T,,M,5.4,N,10.0,K,S*15
$GPGGA,214151.37,5315.7837,N,05022.3686,E,1,4,0.9,50.0,M,0.0,M,,*55
$GPVTG,87.5,T,,M,5.4,N,10.0,K,S*15
$GPGGA,214151.47,5315.7838,N,05022.3684,E,1,4,0.9,50.0,M,0.0,M,,*5F
$GPVTG,87.5,T,,M,5.4,N,10.0,K,S*15
$GPGGA,214151.57,5315.7839,N,05022.3682,E,1,4,0.9,50.0,M,0.0,M,,*59
$GPVTG,87.5,T,,M,5.4,N,10.0,K,S*15
$GPGGA,214151.67,5315.7840,N,05022.3680,E,1,4,0.9,50.0,M,0.0,M,,*56
$GPVTG,87.5,T,,M,5.4,N,10.0,K,S*15
$GPGGA,214151.77,5315.7840,N,05022.3678,E,1,4,0.9,50.0,M,0.0,M,,*50
$GPVTG,87.5,T,,M,5.4,N,10.0,K,S*15
$GPGGA,214151.87,5315.7841,N,05022.3676,E,1,4,0.9,50.0,M,0.0,M,,*50
$GPVTG,87.4,T,,M,5.4,N,10.0,K,S*14
$GPGGA,214151.97,5315.7842,N,05022.3674,E,1,4,0.9,50.0,M,0.0,M,,*50
$GPVTG,87.4,T,,M,5.4,N,10.0,K,S*14
$GPGGA,214152.07,5315.7843,N,05022.3672,E,1,4,0.9,50.0,M,0.0,M,,*5D
$GPVTG,87.4,T,,M,5.4,N,10.0,K,S*14
$GPGGA,214152.17,5315.7844,N,05022.3670,E,1,4,0.9,50.0,M,0.0,M,,*59
$GPVTG,87.4,T,,M,5.4,N,10.0,K,S*14
$GPGGA,214152.27,5315.7844,N,05022.3668,E,1,4,0.9,50.0,M,0.0,M,,*53
$GPVTG,87.4,T,,M,5.4,N,10.0,K,S*14
$GPGGA,214152.37,5315.7845,N,05022.3666,E,1,4,0.9,50.0,M,0.0,M,,*5D
$GPVTG,87.4,T,,M,5.4,N,10.0,K,S*14
$GPGGA,214152.47,5315.7846,N,05022.3663,E,1,4,0.9,50.0,M,0.0,M,,*5C
$GPVTG,87.4,T,,M,5.4,N,10.0,K,S*14
$GPGGA,214152.57,5315.7847,N,05022.3661,E,1,4,0.9,50.0,M,0.0,M,,*5E
$GPVTG,87.3,T,,M,5.4,N,10.0,K,S*13
$GPGGA,214152.67,5315.7847,N,05022.3659,E,1,4,0.9,50.0,M,0.0,M,,*56
$GPVTG,87.3,T,,M,5.4,N,10.0,K,S*13
$GPGGA,214152.77,5315.7848,N,05022.3657,E,1,4,0.9,50.0,M,0.0,M,,*56
$GPVTG,87.3,T,,M,5.4,N,10.0,K,S*13
$GPGGA,214152.88,5315.7849,N,05022.3655,E,1,4,0.9,50.0,M,0.0,M,,*55
$GPVTG,87.3,T,,M,5.4,N,10.0,K,S*13
$GPGGA,214152.98,5315.7849,N,05022.3652,E,1,4,0.9,50.0,M,0.0,M,,*53
$GPVTG,87.3,T,,M,5.4,N,10.0,K,S*13
$GPGGA,214153.08,5315.7850,N,05022.3650,E,1,4,0.9,50.0,M,0.0,M,,*51
$GPVTG,87.3,T,,M,5.4,N,10.0,K,S*13
$GPGGA,214153.18,5315.7850,N,05022.3648,E,1,4,0.9,50.0,M,0.0,M,,*59
$GPVTG,87.3,T,,M,5.4,N,10.0,K,S*13
$GPGGA,214153.28,5315.7851,N,05022.3645,E,1,4,0.9,50.0,M,0.0,M,,*56
$GPVTG,87.2,T,,M,5.4,N,10.0,K,S*12
$GPGGA,214153.38,5315.7852,N,05022.3643,E,1,4,0.9,50.0,M,0.0,M,,*52
$GPVTG,87.2,T,,M,5.4,N,10.0,K,S*12
$GPGGA,214153.48,5315.7852,N,05022.3641,E,1,4,0.9,50.0,M,0.0,M,,*57
$GPVTG,87.2,T,,M,5.4,N,10.0,K,S*12
$GPGGA,214153.58,5315.7853,N,05022.3638,E,1,4,0.9,50.0,M,0.0,M,,*59
$GPVTG,87.2,T,,M,5.4,N,10.0,K,S*12
$GPGGA,214153.68,5315.7853,N,05022.3636,E,1,4,0.9,50.0,M,0.0,M,,*54
$GPVTG,87.2,T,,M,5.4,N,10.0,K,S*12
$GPGGA,214153.78,5315.7854,N,05022.3634,E,1,4,0.9,50.0,M,0.0,M,,*50
$GPVTG,87.2,T,,M,5.4,N,10.0,K,S*12
$GPGGA,214153.88,5315.7854,N,05022.3631,E,1,4,0.9,50.0,M,0.0,M,,*5A
$GPVTG,87.2,T,,M,5.4,N,10.0,K,S*12
$GPGGA,214153.98,5315.7854,N,05022.3629,E,1,4,0.9,50.0,M,0.0,M,,*52
$GPVTG,87.1,T,,M,5.4,N,10.0,K,S*11
$GPGGA,214154.08,5315.7855,N,05022.3627,E,1,4,0.9,50.0,M,0.0,M,,*53
$GPVTG,87.1,T,,M,5.4,N,10.0,K,S*11
$GPGGA,214154.18,5315.7855,N,05022.3624,E,1,4,0.9,50.0,M,0.0,M,,*51
$GPVTG,87.1,T,,M,5.4,N,10.0,K,S*11
$GPGGA,214154.28,5315.7856,N,05022.3622,E,1,4,0.9,50.0,M,0.0,M,,*57
$GPVTG,87.1,T,,M,5.4,N,10.0,K,S*11
$GPGGA,214154.38,5315.7856,N,05022.3619,E,1,4,0.9,50.0,M,0.0,M,,*5E
$GPVTG,87.1,T,,M,5.4,N,10.0,K,S*11
$GPGGA,214154.48,5315.7856,N,05022.3617,E,1,4,0.9,50.0,M,0.0,M,,*57
$GPVTG,87.1,T,,M,5.4,N,10.0,K,S*11
$GPGGA,214154.58,5315.7857,N,05022.3614,E,1,4,0.9,50.0,M,0.0,M,,*54
$GPVTG,87.1,T,,M,5.4,N,10.0,K,S*11
$GPGGA,214154.68,5315.7857,N,05022.3612,E,1,4,0.9,50.0,M,0.0,M,,*51
$GPVTG,87.0,T,,M,5.4,N,10.0,K,S*10
$GPGGA,214154.78,5315.7857,N,05022.3609,E,1,4,0.9,50.0,M,0.0,M,,*5A
$GPVTG,87.0,T,,M,5.4,N,10.0,K,S*10
$GPGGA,214154.88,5315.7857,N,05022.3607,E,1,4,0.9,50.0,M,0.0,M,,*5B
$GPVTG,87.0,T,,M,5.4,N,10.0,K,S*10
$GPGGA,214154.98,5315.7858,N,05022.3605,E,1,4,0.9,50.0,M,0.0,M,,*57
$GPVTG,87.0,T,,M,5.4,N,10.0,K,S*10
$GPGGA,214155.08,5315.7858,N,05022.3602,E,1,4,0.9,50.0,M,0.0,M,,*58
$GPVTG,87.0,T,,M,5.4,N,10.0,K,S*10
$GPGGA,214155.18,5315.7858,N,05022.3600,E,1,4,0.9,50.0,M,0.0,M,,*5B
$GPVTG,87.0,T,,M,5.4,N,10.0,K,S*10
$GPGGA,214155.28,5315.7858,N,05022.3597,E,1,4,0.9,50.0,M,0.0,M,,*55
$GPVTG,87.0,T,,M,5.4,N,10.0,K,S*10
$GPGGA,214155.38,5315.7858,N,05022.3595,E,1,4,0.9,50.0,M,0.0,M,,*56
$GPVTG,86.9,T,,M,5.4,N,10.0,K,S*18
$GPGGA,214155.48,5315.7858,N,05022.3592,E,1,4,0.9,50.0,M,0.0,M,,*56
$GPVTG,86.9,T,,M,5.4,N,10.0,K,S*18
$GPGGA,214155.58,5315.7858,N,05022.3590,E,1,4,0.9,50.0,M,0.0,M,,*55
$GPVTG,86.9,T,,M,5.4,N,10.0,K,S*18
$GPGGA,214155.68,5315.7858,N,05022.3587,E,1,4,0.9,50.0,M,0.0,M,,*50
$GPVTG,86.9,T,,M,5.4,N,10.0,K,S*18
$GPGGA,214155.78,5315.7859,N,05022.3585,E,1,4,0.9,50.0,M,0.0,M,,*52
$GPVTG,86.9,T,,M,5.4,N,10.0,K,S*18
$GPGGA,214155.88,5315.7859,N,05022.3582,E,1,4,0.9,50.0,M,0.0,M,,*5A
$GPVTG,86.9,T,,M,5.4,N,10.0,K,S*18
$GPGGA,214155.98,5315.7859,N,05022.3580,E,1,4,0.9,50.0,M,0.0,M,,*59
$GPVTG,86.8,T,,M,5.4,N,10.0,K,S*19
$GPGGA,214156.08,5315.7858,N,05022.3577,E,1,4,0.9,50.0,M,0.0,M,,*5A
$GPVTG,86.8,T,,M,5.4,N,10.0,K,S*19
$GPGGA,214156.18,5315.7858,N,05022.3575,E,1,4,0.9,50.0,M,0.0,M,,*59
$GPVTG,86.8,T,,M,5.4,N,10.0,K,S*19
$GPGGA,214156.28,5315.7858,N,05022.3572,E,1,4,0.9,50.0,M,0.0,M,,*5D
$GPVTG,86.8,T,,M,5.4,N,10.0,K,S*19
$GPGGA,214156.38,5315.7858,N,05022.3570,E,1,4,0.9,50.0,M,0.0,M,,*5E
$GPVTG,86.8,T,,M,5.4,N,10.0,K,S*19
$GPGGA,214156.48,5315.7858,N,05022.3567,E,1,4,0.9,50.0,M,0.0,M,,*5F
$GPVTG,86.8,T,,M,5.4,N,10.0,K,S*19
$GPGGA,214156.58,5315.7858,N,05022.3565,E,1,4,0.9,50.0,M,0.0,M,,*5C
$GPVTG,86.8,T,,M,5.4,N,10.0,K,S*19
$GPGGA,214156.68,5315.7858,N,05022.3562,E,1,4,0.9,50.0,M,0.0,M,,*58
$GPVTG,86.7,T,,M,5.4,N,10.0,K,S*16
$GPGGA,214156.78,5315.7858,N,05022.3560,E,1,4,0.9,50.0,M,0.0,M,,*5B
$GPVTG,86.7,T,,M,5.4,N,10.0,K,S*16
$GPGGA,214156.88,5315.7858,N,05022.3557,E,1,4,0.9,50.0,M,0.0,M,,*50
$GPVTG,86.7,T,,M,5.4,N,10.0,K,S*16
$GPGGA,214156.98,5315.7857,N,05022.3555,E,1,4,0.9,50.0,M,0.0,M,,*5C
$GPVTG,86.7,T,,M,5.4,N,10.0,K,S*16
$GPGGA,214157.09,5315.7857,N,05022.3552,E,1,4,0.9,50.0,M,0.0,M,,*52
$GPVTG,86.7,T,,M,5.4,N,10.0,K,S*16
$GPGGA,214157.19,5315.7857,N,05022.3550,E,1,4,0.9,50.0,M,0.0,M,,*51
$GPVTG,86.7,T,,M,5.4,N,10.0,K,S*16
$GPGGA,214157.29,5315.7856,N,05022.3547,E,1,4,0.9,50.0,M,0.0,M,,*55
$GPVTG,86.7,T,,M,5.4,N,10.0,K,S*16
$GPGGA,214157.39,5315.7856,N,05022.3545,E,1,4,0.9,50.0,M,0.0,M,,*56
$GPVTG,86.6,T,,M,5.4,N,10.0,K,S*17
$GPGGA,214157.49,5315.7856,N,05022.3542,E,1,4,0.9,50.0,M,0.0,M,,*56
$GPVTG,86.6,T,,M,5.4,N,10.0,K,S*17
$GPGGA,214157.59,5315.7856,N,05022.3540,E,1,4,0.9,50.0,M,0.0,M,,*55
$GPVTG,86.6,T,,M,5.4,N,10.0,K,S*17
$GPGGA,214157.69,5315.7855,N,05022.3538,E,1,4,0.9,50.0,M,0.0,M,,*5A
$GPVTG,86.6,T,,M,5.4,N,10.0,K,S*17
$GPGGA,214157.79,5315.7855,N,05022.3535,E,1,4,0.9,50.0,M,0.0,M,,*56
$GPVTG,86.6,T,,M,5.4,N,10.0,K,S*17
$GPGGA,214157.89,5315.7854,N,05022.3533,E,1,4,0.9,50.0,M,0.0,M,,*5E
$GPVTG,86.6,T,,M,5.4,N,10.0,K,S*17
$GPGGA,214157.99,5315.7854,N,05022.3530,E,1,4,0.9,50.0,M,0.0,M,,*5C
$GPVTG,86.6,T,,M,5.4,N,10.0,K,S*17
$GPGGA,214158.09,5315.7853,N,05022.3528,E,1,4,0.9,50.0,M,0.0,M,,*54
$GPVTG,86.5,T,,M,5.4,N,10.0,K,S*14
$GPGGA,214158.19,5315.7853,N,05022.3526,E,1,4,0.9,50.0,M,0.0,M,,*5B
$GPVTG,86.5,T,,M,5.4,N,10.0,K,S*14
$GPGGA,214158.29,5315.7852,N,05022.3523,E,1,4,0.9,50.0,M,0.0,M,,*5C
$GPVTG,86.5,T,,M,5.4,N,10.0,K,S*14
$GPGGA,214158.39,5315.7852,N,05022.3521,E,1,4,0.9,50.0,M,0.0,M,,*5F
$GPVTG,86.5,T,,M,5.4,N,10.0,K,S*14
$GPGGA,214158.49,5315.7851,N,05022.3519,E,1,4,0.9,50.0,M,0.0,M,,*50
$GPVTG,86.5,T,,M,5.4,N,10.0,K,S*14
$GPGGA,214158.59,5315.7851,N,05022.3516,E,1,4,0.9,50.0,M,0.0,M,,*5E
$GPVTG,86.5,T,,M,5.4,N,10.0,K,S*14
$GPGGA,214158.69,5315.7850,N,05022.3514,E,1,4,0.9,50.0,M,0.0,M,,*5E
$GPVTG,86.5,T,,M,5.4,N,10.0,K,S*14
$GPGGA,214158.79,5315.7850,N,05022.3512,E,1,4,0.9,50.0,M,0.0,M,,*59
$GPVTG,86.4,T,,M,5.4,N,10.0,K,S*15
$GPGGA,214158.89,5315.7849,N,05022.3509,E,1,4,0.9,50.0,M,0.0,M,,*54
$GPVTG,86.4,T,,M,5.4,N,10.0,K,S*15
$GPGGA,214158.99,5315.7848,N,05022.3507,E,1,4,0.9,50.0,M,0.0,M,,*5A
$GPVTG,86.4,T,,M,5.4,N,10.0,K,S*15
$GPGGA,214159.09,5315.7848,N,05022.3505,E,1,4,0.9,50.0,M,0.0,M,,*50
$GPVTG,86.4,T,,M,5.4,N,10.0,K,S*15
$GPGGA,214159.19,5315.7847,N,05022.3503,E,1,4,0.9,50.0,M,0.0,M,,*58
$GPVTG,86.4,T,,M,5.4,N,10.0,K,S*15
$GPGGA,214159.29,5315.7846,N,05022.3501,E,1,4,0.9,50.0,M,0.0,M,,*58
$GPVTG,86.4,T,,M,5.4,N,10.0,K,S*15
$GPGGA,214159.39,5315.7846,N,05022.3498,E,1,4,0.9,50.0,M,0.0,M,,*58
$GPVTG,86.4,T,,M,5.4,N,10.0,K,S*15
$GPGGA,214159.49,5315.7845,N,05022.3496,E,1,4,0.9,50.0,M,0.0,M,,*52
$GPVTG,86.3,T,,M,5.4,N,10.0,K,S*12
$GPGGA,214159.59,5315.7844,N,05022.3494,E,1,4,0.9,50.0,M,0.0,M,,*50
$GPVTG,86.3,T,,M,5.4,N,10.0,K,S*12
$GPGGA,214159.69,5315.7843,N,05022.3492,E,1,4,0.9,50.0,M,0.0,M,,*52
$GPVTG,86.3,T,,M,5.4,N,10.0,K,S*12
$GPGGA,214159.79,5315.7843,N,05022.3490,E,1,4,0.9,50.0,M,0.0,M,,*51
$GPVTG,86.3,T,,M,5.4,N,10.0,K,S*12
$GPGGA,214159.89,5315.7842,N,05022.3488,E,1,4,0.9,50.0,M,0.0,M,,*56
$GPVTG,86.3,T,,M,5.4,N,10.0,K,S*12
$GPGGA,214159.99,5315.7841,N,05022.3486,E,1,4,0.9,50.0,M,0.0,M,,*5A
$GPVTG,86.3,T,,M,5.4,N,10.0,K,S*12
$GPGGA,214200.09,5315.7840,N,05022.3483,E,1,4,0.9,50.0,M,0.0,M,,*58
$GPVTG,86.3,T,,M,5.4,N,10.0,K,S*12
$GPGGA,214200.19,5315.7839,N,05022.3481,E,1,4,0.9,50.0,M,0.0,M,,*55
$GPVTG,86.2,T,,M,5.4,N,10.0,K,S*13
$GPGGA,214200.29,5315.7838,N,05022.3479,E,1,4,0.9,50.0,M,0.0,M,,*50
$GPVTG,86.2,T,,M,5.4,N,10.0,K,S*13
$GPGGA,214200.39,5315.7837,N,05022.3477,E,1,4,0.9,50.0,M,0.0,M,,*50
$GPVTG,86.2,T,,M,5.4,N,10.0,K,S*13
$GPGGA,214200.49,5315.7837,N,05022.3475,E,1,4,0.9,50.0,M,0.0,M,,*55
$GPVTG,86.2,T,,M,5.4,N,10.0,K,S*13
$GPGGA,214200.59,5315.7836,N,05022.3474,E,1,4,0.9,50.0,M,0.0,M,,*54
$GPVTG,86.2,T,,M,5.4,N,10.0,K,S*13
$GPGGA,214200.69,5315.7835,N,05022.3472,E,1,4,0.9,50.0,M,0.0,M,,*52
$GPVTG,86.2,T,,M,5.4,N,10.0,K,S*13
$GPGGA,214200.79,5315.7834,N,05022.3470,E,1,4,0.9,50.0,M,0.0,M,,*50
$GPVTG,86.1,T,,M,5.4,N,10.0,K,S*10
$GPGGA,214200.89,5315.7833,N,05022.3468,E,1,4,0.9,50.0,M,0.0,M,,*51
$GPVTG,86.1,T,,M,5.4,N,10.0,K,S*10
$GPGGA,214200.99,5315.7832,N,05022.3466,E,1,4,0.9,50.0,M,0.0,M,,*5F
$GPVTG,86.1,T,,M,5.4,N,10.0,K,S*10
$GPGGA,214201.09,5315.7831,N,05022.3464,E,1,4,0.9,50.0,M,0.0,M,,*56
$GPVTG,86.1,T,,M,5.4,N,10.0,K,S*10
$GPGGA,214201.19,5315.7830,N,05022.3462,E,1,4,0.9,50.0,M,0.0,M,,*50
$GPVTG,86.1,T,,M,5.4,N,10.0,K,S*10
$GPGGA,214201.29,5315.7829,N,05022.3461,E,1,4,0.9,50.0,M,0.0,M,,*58
$GPVTG,86.1,T,,M,5.4,N,10.0,K,S*10
$GPGGA,214201.39,5315.7828,N,05022.3459,E,1,4,0.9,50.0,M,0.0,M,,*53
$GPVTG,86.1,T,,M,5.4,N,10.0,K,S*10
$GPGGA,214201.49,5315.7826,N,05022.3457,E,1,4,0.9,50.0,M,0.0,M,,*54
$GPVTG,86.0,T,,M,5.4,N,10.0,K,S*11
$GPGGA,214201.60,5315.7825,N,05022.3455,E,1,4,0.9,50.0,M,0.0,M,,*5E
$GPVTG,86.0,T,,M,5.4,N,10.0,K,S*11
$GPGGA,214201.70,5315.7824,N,05022.3454,E,1,4,0.9,50.0,M,0.0,M,,*5F
$GPVTG,86.0,T,,M,5.4,N,10.0,K,S*11
$GPGGA,214201.80,5315.7823,N,05022.3452,E,1,4,0.9,50.0,M,0.0,M,,*51
$GPVTG,86.0,T,,M,5.4,N,10.0,K,S*11
$GPGGA,214201.90,5315.7822,N,05022.3450,E,1,4,0.9,50.0,M,0.0,M,,*53
$GPVTG,86.0,T,,M,5.4,N,10.0,K,S*11
$GPGGA,214202.00,5315.7821,N,05022.3449,E,1,4,0.9,50.0,M,0.0,M,,*52
$GPVTG,86.0,T,,M,5.4,N,10.0,K,S*11
$GPGGA,214202.10,5315.7820,N,05022.3447,E,1,4,0.9,50.0,M,0.0,M,,*5C
$GPVTG,86.0,T,,M,5.4,N,10.0,K,S*11
$GPGGA,214202.20,5315.7819,N,05022.3446,E,1,4,0.9,50.0,M,0.0,M,,*54
$GPVTG,85.9,T,,M,5.4,N,10.0,K,S*1B
$GPGGA,214202.30,5315.7817,N,05022.3444,E,1,4,0.9,50.0,M,0.0,M,,*59
$GPVTG,85.9,T,,M,5.4,N,10.0,K,S*1B
$GPGGA,214202.40,5315.7816,N,05022.3443,E,1,4,0.9,50.0,M,0.0,M,,*58
$GPVTG,85.9,T,,M,5.4,N,10.0,K,S*1B
$GPGGA,214202.50,5315.7815,N,05022.3441,E,1,4,0.9,50.0,M,0.0,M,,*58
$GPVTG,85.9,T,,M,5.4,N,10.0,K,S*1B
$GPGGA,214202.60,5315.7814,N,05022.3440,E,1,4,0.9,50.0,M,0.0,M,,*5B
$GPVTG,85.9,T,,M,5.4,N,10.0,K,S*1B
$GPGGA,214202.70,5315.7812,N,05022.3438,E,1,4,0.9,50.0,M,0.0,M,,*53
$GPVTG,85.9,T,,M,5.4,N,10.0,K,S*1B
$GPGGA,214202.80,5315.7811,N,05022.3437,E,1,4,0.9,50.0,M,0.0,M,,*50
$GPVTG,85.9,T,,M,5.4,N,10.0,K,S*1B
$GPGGA,214202.90,5315.7810,N,05022.3436,E,1,4,0.9,50.0,M,0.0,M,,*51
$GPVTG,85.8,T,,M,5.4,N,10.0,K,S*1A
$GPGGA,214203.00,5315.7809,N,05022.3434,E,1,4,0.9,50.0,M,0.0,M,,*53
$GPVTG,85.8,T,,M,5.4,N,10.0,K,S*1A
$GPGGA,214203.10,5315.7807,N,05022.3433,E,1,4,0.9,50.0,M,0.0,M,,*5B
$GPVTG,85.8,T,,M,5.4,N,10.0,K,S*1A
$GPGGA,214203.20,5315.7806,N,05022.3432,E,1,4,0.9,50.0,M,0.0,M,,*58
$GPVTG,85.8,T,,M,5.4,N,10.0,K,S*1A
$GPGGA,214203.30,5315.7805,N,05022.3431,E,1,4,0.9,50.0,M,0.0,M,,*59
$GPVTG,85.8,T,,M,5.4,N,10.0,K,S*1A
$GPGGA,214203.40,5315.7803,N,05022.3430,E,1,4,0.9,50.0,M,0.0,M,,*59
$GPVTG,85.8,T,,M,5.4,N,10.0,K,S*1A
$GPGGA,214203.50,5315.7802,N,05022.3428,E,1,4,0.9,50.0,M,0.0,M,,*50
$GPVTG,85.8,T,,M,5.4,N,10.0,K,S*1A
$GPGGA,214203.60,5315.7801,N,05022.3427,E,1,4,0.9,50.0,M,0.0,M,,*5F
$GPVTG,85.7,T,,M,5.4,N,10.0,K,S*15
$GPGGA,214203.70,5315.7799,N,05022.3426,E,1,4,0.9,50.0,M,0.0,M,,*51
$GPVTG,85.7,T,,M,5.4,N,10.0,K,S*15
$GPGGA,214203.80,5315.7798,N,05022.3425,E,1,4,0.9,50.0,M,0.0,M,,*5C
$GPVTG,85.7,T,,M,5.4,N,10.0,K,S*15
$GPGGA,214203.90,5315.7797,N,05022.3424,E,1,4,0.9,50.0,M,0.0,M,,*53
$GPVTG,85.7,T,,M,5.4,N,10.0,K,S*15
$GPGGA,214204.00,5315.7795,N,05022.3423,E,1,4,0.9,50.0,M,0.0,M,,*58
$GPVTG,85.7,T,,M,5.4,N,10.0,K,S*15
$GPGGA,214204.10,5315.7794,N,05022.3422,E,1,4,0.9,50.0,M,0.0,M,,*59
$GPVTG,85.7,T,,M,5.4,N,10.0,K,S*15
$GPGGA,214204.20,5315.7792,N,05022.3421,E,1,4,0.9,50.0,M,0.0,M,,*5F
$GPVTG,85.7,T,,M,5.4,N,10.0,K,S*15
$GPGGA,214204.30,5315.7791,N,05022.3420,E,1,4,0.9,50.0,M,0.0,M,,*5C
$GPVTG,85.6,T,,M,5.4,N,10.0,K,S*14
$GPGGA,214204.40,5315.7790,N,05022.3420,E,1,4,0.9,50.0,M,0.0,M,,*5A
$GPVTG,85.6,T,,M,5.4,N,10.0,K,S*14
$GPGGA,214204.50,5315.7788,N,05022.3419,E,1,4,0.9,50.0,M,0.0,M,,*58
$GPVTG,85.6,T,,M,5.4,N,10.0,K,S*14
$GPGGA,214204.60,5315.7787,N,05022.3418,E,1,4,0.9,50.0,M,0.0,M,,*55
$GPVTG,85.6,T,,M,5.4,N,10.0,K,S*14
$GPGGA,214204.70,5315.7785,N,05022.3417,E,1,4,0.9,50.0,M,0.0,M,,*59
$GPVTG,85.6,T,,M,5.4,N,10.0,K,S*14
$GPGGA,214204.80,5315.7784,N,05022.3417,E,1,4,0.9,50.0,M,0.0,M,,*57
$GPVTG,85.6,T,,M,5.4,N,10.0,K,S*14
$GPGGA,214204.90,5315.7783,N,05022.3416,E,1,4,0.9,50.0,M,0.0,M,,*50
$GPVTG,85.5,T,,M,5.4,N,10.0,K,S*17
$GPGGA,214205.00,5315.7781,N,05022.3415,E,1,4,0.9,50.0,M,0.0,M,,*59
$GPVTG,85.5,T,,M,5.4,N,10.0,K,S*17
$GPGGA,214205.11,5315.7780,N,05022.3415,E,1,4,0.9,50.0,M,0.0,M,,*58
$GPVTG,85.5,T,,M,5.4,N,10.0,K,S*17
$GPGGA,214205.21,5315.7778,N,05022.3414,E,1,4,0.9,50.0,M,0.0,M,,*5D
$GPVTG,85.5,T,,M,5.4,N,10.0,K,S*17
$GPGGA,214205.31,5315.7777,N,05022.3414,E,1,4,0.9,50.0,M,0.0,M,,*53
$GPVTG,85.5,T,,M,5.4,N,10.0,K,S*17
$GPGGA,214205.41,5315.7775,N,05022.3413,E,1,4,0.9,50.0,M,0.0,M,,*51
$GPVTG,85.5,T,,M,5.4,N,10.0,K,S*17
$GPGGA,214205.51,5315.7774,N,05022.3413,E,1,4,0.9,50.0,M,0.0,M,,*51
$GPVTG,85.5,T,,M,5.4,N,10.0,K,S*17
$GPGGA,214205.61,5315.7772,N,05022.3412,E,1,4,0.9,50.0,M,0.0,M,,*55
$GPVTG,85.4,T,,M,5.4,N,10.0,K,S*16
$GPGGA,214205.71,5315.7771,N,05022.3412,E,1,4,0.9,50.0,M,0.0,M,,*57
$GPVTG,85.4,T,,M,5.4,N,10.0,K,S*16
$GPGGA,214205.81,5315.7769,N,05022.3412,E,1,4,0.9,50.0,M,0.0,M,,*51
$GPVTG,85.4,T,,M,5.4,N,10.0,K,S*16
$GPGGA,214205.91,5315.7768,N,05022.3411,E,1,4,0.9,50.0,M,0.0,M,,*52
$GPVTG,85.4,T,,M,5.4,N,10.0,K,S*16
$GPGGA,214206.01,5315.7766,N,05022.3411,E,1,4,0.9,50.0,M,0.0,M,,*56
$GPVTG,85.4,T,,M,5.4,N,10.0,K,S*16
$GPGGA,214206.11,5315.7765,N,05022.3411,E,1,4,0.9,50.0,M,0.0,M,,*54
$GPVTG,85.4,T,,M,5.4,N,10.0,K,S*16
$GPGGA,214206.21,5315.7763,N,05022.3411,E,1,4,0.9,50.0,M,0.0,M,,*51
$GPVTG,85.4,T,,M,5.4,N,10.0,K,S*16
$GPGGA,214206.31,5315.7762,N,05022.3410,E,1,4,0.9,50.0,M,0.0,M,,*50
$GPVTG,85.3,T,,M,5.4,N,10.0,K,S*11
$GPGGA,214206.41,5315.7760,N,05022.3410,E,1,4,0.9,50.0,M,0.0,M,,*55
$GPVTG,85.3,T,,M,5.4,N,10.0,K,S*11
$GPGGA,214206.51,5315.7759,N,05022.3410,E,1,4,0.9,50.0,M,0.0,M,,*5E
$GPVTG,85.3,T,,M,5.4,N,10.0,K,S*11
$GPGGA,214206.61,5315.7757,N,05022.3410,E,1,4,0.9,50.0,M,0.0,M,,*53
$GPVTG,85.3,T,,M,5.4,N,10.0,K,S*11
$GPGGA,214206.71,5315.7756,N,05022.3410,E,1,4,0.9,50.0,M,0.0,M,,*53
$GPVTG,85.3,T,,M,5.4,N,10.0,K,S*11
$GPGGA,214206.81,5315.7754,N,05022.3410,E,1,4,0.9,50.0,M,0.0,M,,*5E
$GPVTG,85.3,T,,M,5.4,N,10.0,K,S*11
$GPGGA,214206.91,5315.7753,N,05022.3410,E,1,4,0.9,50.0,M,0.0,M,,*58
$GPVTG,85.3,T,,M,5.4,N,10.0,K,S*11
$GPGGA,214207.01,5315.7751,N,05022.3410,E,1,4,0.9,50.0,M,0.0,M,,*52
$GPVTG,85.2,T,,M,5.4,N,10.0,K,S*10
$GPGGA,214207.11,5315.7750,N,05022.3410,E,1,4,0.9,50.0,M,0.0,M,,*52
$GPVTG,85.2,T,,M,5.4,N,10.0,K,S*10
$GPGGA,214207.21,5315.7748,N,05022.3411,E,1,4,0.9,50.0,M,0.0,M,,*59
$GPVTG,85.2,T,,M,5.4,N,10.0,K,S*10
$GPGGA,214207.31,5315.7747,N,05022.3411,E,1,4,0.9,50.0,M,0.0,M,,*57
$GPVTG,85.2,T,,M,5.4,N,10.0,K,S*10
$GPGGA,214207.41,5315.7745,N,05022.3411,E,1,4,0.9,50.0,M,0.0,M,,*52
$GPVTG,85.2,T,,M,5.4,N,10.0,K,S*10
$GPGGA,214207.51,5315.7744,N,05022.3411,E,1,4,0.9,50.0,M,0.0,M,,*52
$GPVTG,85.2,T,,M,5.4,N,10.0,K,S*10
$GPGGA,214207.61,5315.7742,N,05022.3412,E,1,4,0.9,50.0,M,0.0,M,,*54
$GPVTG,85.2,T,,M,5.4,N,10.0,K,S*10
$GPGGA,214207.71,5315.7741,N,05022.3412,E,1,4,0.9,50.0,M,0.0,M,,*56
$GPVTG,85.1,T,,M,5.4,N,10.0,K,S*13
$GPGGA,214207.81,5315.7739,N,05022.3412,E,1,4,0.9,50.0,M,0.0,M,,*56
$GPVTG,85.1,T,,M,5.4,N,10.0,K,S*13
$GPGGA,214207.91,5315.7738,N,05022.3413,E,1,4,0.9,50.0,M,0.0,M,,*57
$GPVTG,85.1,T,,M,5.4,N,10.0,K,S*13
$GPGGA,214208.01,5315.7737,N,05022.3413,E,1,4,0.9,50.0,M,0.0,M,,*5E
$GPVTG,85.1,T,,M,5.4,N,10.0,K,S*13
$GPGGA,214208.11,5315.7735,N,05022.3414,E,1,4,0.9,50.0,M,0.0,M,,*5A
$GPVTG,85.1,T,,M,5.4,N,10.0,K,S*13
$GPGGA,214208.21,5315.7734,N,05022.3414,E,1,4,0.9,50.0,M,0.0,M,,*58
$GPVTG,85.1,T,,M,5.4,N,10.0,K,S*13
$GPGGA,214208.31,5315.7732,N,05022.3415,E,1,4,0.9,50.0,M,0.0,M,,*5E
$GPVTG,85.1,T,,M,5.4,N,10.0,K,S*13
$GPGGA,214208.42,5315.7731,N,05022.3415,E,1,4,0.9,50.0,M,0.0,M,,*59
$GPVTG,85.0,T,,M,5.4,N,10.0,K,S*12
$GPGGA,214208.52,5315.7729,N,05022.3416,E,1,4,0.9,50.0,M,0.0,M,,*52
$GPVTG,85.0,T,,M,5.4,N,10.0,K,S*12
$GPGGA,214208.62,5315.7728,N,05022.3417,E,1,4,0.9,50.0,M,0.0,M,,*51
$GPVTG,85.0,T,,M,5.4,N,10.0,K,S*12
$GPGGA,214208.72,5315.7726,N,05022.3417,E,1,4,0.9,50.0,M,0.0,M,,*5E
$GPVTG,85.0,T,,M,5.4,N,10.0,K,S*12
$GPGGA,214208.82,5315.7725,N,05022.3418,E,1,4,0.9,50.0,M,0.0,M,,*5D
$GPVTG,85.0,T,,M,5.4,N,10.0,K,S*12
$GPGGA,214208.92,5315.7723,N,05022.3419,E,1,4,0.9,50.0,M,0.0,M,,*5B
$GPVTG,85.0,T,,M,5.4,N,10.0,K,S*12
$GPGGA,214209.02,5315.7722,N,05022.3420,E,1,4,0.9,50.0,M,0.0,M,,*58
$GPVTG,85.0,T,,M,5.4,N,10.0,K,S*12
$GPGGA,214209.12,5315.7721,N,05022.3421,E,1,4,0.9,50.0,M,0.0,M,,*5B
$GPVTG,84.9,T,,M,5.4,N,10.0,K,S*1A
$GPGGA,2