$GPGGA,214034.19,5315.7667,N,05022.3667,E,1,4,0.9,50.0,M,0.0,M,,*5F
$GPVTG,84.8,T,,M,5.4,N,10.0,K,S*1B
$GPGGA,214034.29,5315.7666,N,05022.3668,E,1,4,0.9,50.0,M,0.0,M,,*52
$GPVTG,84.8,T,,M,5.4,N,10.0,K,S*1B
$GPGGA,214034.39,5315.7664,N,05022.3669,E,1,4,0.9,50.0,M,0.0,M,,*50
$GPVTG,84.8,T,,M,5.4,N,10.0,K,S*1B
$GPGGA,214034.49,5315.7663,N,05022.3670,E,1,4,0.9,50.0,M,0.0,M,,*58
$GPVTG,84.9,T,,M,5.4,N,10.0,K,S*1A
$GPGGA,214034.59,5315.7662,N,05022.3671,E,1,4,0.9,50.0,M,0.0,M,,*59
$GPVTG,84.9,T,,M,5.4,N,10.0,K,S*1A
$GPGGA,214034.69,5315.7660,N,05022.3672,E,1,4,0.9,50.0,M,0.0,M,,*5B
$GPVTG,85.0,T,,M,5.4,N,10.0,K,S*12
$GPGGA,214034.79,5315.7659,N,05022.3673,E,1,4,0.9,50.0,M,0.0,M,,*51
$GPVTG,85.0,T,,M,5.4,N,10.0,K,S*12
$GPGGA,214034.89,5315.7657,N,05022.3673,E,1,4,0.9,50.0,M,0.0,M,,*50
$GPVTG,85.0,T,,M,5.4,N,10.0,K,S*12
$GPGGA,214034.99,5315.7656,N,05022.3674,E,1,4,0.9,50.0,M,0.0,M,,*57
$GPVTG,85.1,T,,M,5.4,N,10.0,K,S*13
$GPGGA,214035.09,5315.7655,N,05022.3675,E,1,4,0.9,50.0,M,0.0,M,,*5D
$GPVTG,85.1,T,,M,5.4,N,10.0,K,S*13
$GPGGA,214035.19,5315.7653,N,05022.3675,E,1,4,0.9,50.0,M,0.0,M,,*5A
$GPVTG,85.1,T,,M,5.4,N,10.0,K,S*13
$GPGGA,214035.29,5315.7652,N,05022.3675,E,1,4,0.9,50.0,M,0.0,M,,*58
$GPVTG,85.2,T,,M,5.4,N,10.0,K,S*10
$GPGGA,214035.39,5315.7650,N,05022.3676,E,1,4,0.9,50.0,M,0.0,M,,*58
$GPVTG,85.2,T,,M,5.4,N,10.0,K,S*10
$GPGGA,214035.49,5315.7649,N,05022.3676,E,1,4,0.9,50.0,M,0.0,M,,*57
$GPVTG,85.2,T,,M,5.4,N,10.0,K,S*10
$GPGGA,214035.59,5315.7647,N,05022.3676,E,1,4,0.9,50.0,M,0.0,M,,*58
$GPVTG,85.3,T,,M,5.4,N,10.0,K,S*11
$GPGGA,214035.69,5315.7646,N,05022.3676,E,1,4,0.9,50.0,M,0.0,M,,*5A
$GPVTG,85.3,T,,M,5.4,N,10.0,K,S*11
$GPGGA,214035.79,5315.7644,N,05022.3676,E,1,4,0.9,50.0,M,0.0,M,,*59
$GPVTG,85.4,T,,M,5.4,N,10.0,K,S*16
$GPGGA,214035.89,5315.7643,N,05022.3675,E,1,4,0.9,50.0,M,0.0,M,,*52
$GPVTG,85.4,T,,M,5.4,N,10.0,K,S*16
$GPGGA,214035.99,5315.7641,N,05022.3675,E,1,4,0.9,50.0,M,0.0,M,,*51
$GPVTG,85.4,T,,M,5.4,N,10.0,K,S*16
$GPGGA,214036.09,5315.7640,N,05022.3675,E,1,4,0.9,50.0,M,0.0,M,,*5A
$GPVTG,85.5,T,,M,5.4,N,10.0,K,S*17
$GPGGA,214036.19,5315.7638,N,05022.3674,E,1,4,0.9,50.0,M,0.0,M,,*55
$GPVTG,85.5,T,,M,5.4,N,10.0,K,S*17
$GPGGA,214036.29,5315.7637,N,05022.3674,E,1,4,0.9,50.0,M,0.0,M,,*59
$GPVTG,85.5,T,,M,5.4,N,10.0,K,S*17
$GPGGA,214036.39,5315.7635,N,05022.3673,E,1,4,0.9,50.0,M,0.0,M,,*5D
$GPVTG,85.6,T,,M,5.4,N,10.0,K,S*14
$GPGGA,214036.49,5315.7634,N,05022.3672,E,1,4,0.9,50.0,M,0.0,M,,*5A
$GPVTG,85.6,T,,M,5.4,N,10.0,K,S*14
$GPGGA,214036.60,5315.7632,N,05022.3671,E,1,4,0.9,50.0,M,0.0,M,,*54
$GPVTG,85.7,T,,M,5.4,N,10.0,K,S*15
$GPGGA,214036.70,5315.7631,N,05022.3670,E,1,4,0.9,50.0,M,0.0,M,,*57
$GPVTG,85.7,T,,M,5.4,N,10.0,K,S*15
$GPGGA,214036.80,5315.7630,N,05022.3669,E,1,4,0.9,50.0,M,0.0,M,,*51
$GPVTG,85.7,T,,M,5.4,N,10.0,K,S*15
$GPGGA,214036.90,5315.7628,N,05022.3668,E,1,4,0.9,50.0,M,0.0,M,,*58
$GPVTG,85.8,T,,M,5.4,N,10.0,K,S*1A
$GPGGA,214037.00,5315.7627,N,05022.3667,E,1,4,0.9,50.0,M,0.0,M,,*50
$GPVTG,85.8,T,,M,5.4,N,10.0,K,S*1A
$GPGGA,214037.10,5315.7626,N,05022.3666,E,1,4,0.9,50.0,M,0.0,M,,*51
$GPVTG,85.8,T,,M,5.4,N,10.0,K,S*1A
$GPGGA,214037.20,5315.7624,N,05022.3664,E,1,4,0.9,50.0,M,0.0,M,,*52
$GPVTG,85.9,T,,M,5.4,N,10.0,K,S*1B
$GPGGA,214037.30,5315.7623,N,05022.3663,E,1,4,0.9,50.0,M,0.0,M,,*53
$GPVTG,85.9,T,,M,5.4,N,10.0,K,S*1B
$GPGGA,214037.40,5315.7622,N,05022.3661,E,1,4,0.9,50.0,M,0.0,M,,*57
$GPVTG,86.0,T,,M,5.4,N,10.0,K,S*11
$GPGGA,214037.50,5315.7621,N,05022.3660,E,1,4,0.9,50.0,M,0.0,M,,*54
$GPVTG,86.0,T,,M,5.4,N,10.0,K,S*11
$GPGGA,214037.60,5315.7620,N,05022.3658,E,1,4,0.9,50.0,M,0.0,M,,*5D
$GPVTG,86.0,T,,M,5.4,N,10.0,K,S*11
$GPGGA,214037.70,5315.7619,N,05022.3656,E,1,4,0.9,50.0,M,0.0,M,,*58
$GPVTG,86.1,T,,M,5.4,N,10.0,K,S*10
$GPGGA,214037.80,5315.7618,N,05022.3655,E,1,4,0.9,50.0,M,0.0,M,,*55
$GPVTG,86.1,T,,M,5.4,N,10.0,K,S*10
$GPGGA,214037.90,5315.7617,N,05022.3653,E,1,4,0.9,50.0,M,0.0,M,,*5D
$GPVTG,86.1,T,,M,5.4,N,10.0,K,S*10
$GPGGA,214038.00,5315.7616,N,05022.3651,E,1,4,0.9,50.0,M,0.0,M,,*58
$GPVTG,86.2,T,,M,5.4,N,10.0,K,S*13
$GPGGA,214038.10,5315.7615,N,05022.3649,E,1,4,0.9,50.0,M,0.0,M,,*53
$GPVTG,86.2,T,,M,5.4,N,10.0,K,S*13
$GPGGA,214038.20,5315.7614,N,05022.3647,E,1,4,0.9,50.0,M,0.0,M,,*5F
$GPVTG,86.3,T,,M,5.4,N,10.0,K,S*12
$GPGGA,214038.30,5315.7613,N,05022.3645,E,1,4,0.9,50.0,M,0.0,M,,*5B
$GPVTG,86.3,T,,M,5.4,N,10.0,K,S*12
$GPGGA,214038.40,5315.7612,N,05022.3643,E,1,4,0.9,50.0,M,0.0,M,,*5B
$GPVTG,86.3,T,,M,5.4,N,10.0,K,S*12
$GPGGA,214038.50,5315.7612,N,05022.3641,E,1,4,0.9,50.0,M,0.0,M,,*58
$GPVTG,86.4,T,,M,5.4,N,10.0,K,S*15
$GPGGA,214038.60,5315.7611,N,05022.3638,E,1,4,0.9,50.0,M,0.0,M,,*56
$GPVTG,86.4,T,,M,5.4,N,10.0,K,S*15
$GPGGA,214038.70,5315.7610,N,05022.3636,E,1,4,0.9,50.0,M,0.0,M,,*58
$GPVTG,86.4,T,,M,5.4,N,10.0,K,S*15
$GPGGA,214038.80,5315.7610,N,05022.3634,E,1,4,0.9,50.0,M,0.0,M,,*55
$GPVTG,86.5,T,,M,5.4,N,10.0,K,S*14
$GPGGA,214038.90,5315.7609,N,05022.3631,E,1,4,0.9,50.0,M,0.0,M,,*59
$GPVTG,86.5,T,,M,5.4,N,10.0,K,S*14
$GPGGA,214039.00,5315.7609,N,05022.3629,E,1,4,0.9,50.0,M,0.0,M,,*58
$GPVTG,86.6,T,,M,5.4,N,10.0,K,S*17
$GPGGA,214039.10,5315.7608,N,05022.3627,E,1,4,0.9,50.0,M,0.0,M,,*56
$GPVTG,86.6,T,,M,5.4,N,10.0,K,S*17
$GPGGA,214039.20,5315.7608,N,05022.3624,E,1,4,0.9,50.0,M,0.0,M,,*56
$GPVTG,86.6,T,,M,5.4,N,10.0,K,S*17
$GPGGA,214039.30,5315.7608,N,05022.3622,E,1,4,0.9,50.0,M,0.0,M,,*51
$GPVTG,86.7,T,,M,5.4,N,10.0,K,S*16
$GPGGA,214039.40,5315.7607,N,05022.3619,E,1,4,0.9,50.0,M,0.0,M,,*51
$GPVTG,86.7,T,,M,5.4,N,10.0,K,S*16
$GPGGA,214039.50,5315.7607,N,05022.3617,E,1,4,0.9,50.0,M,0.0,M,,*5E
$GPVTG,86.7,T,,M,5.4,N,10.0,K,S*16
$GPGGA,214039.60,5315.7607,N,05022.3614,E,1,4,0.9,50.0,M,0.0,M,,*5E
$GPVTG,86.8,T,,M,5.4,N,10.0,K,S*19
$GPGGA,214039.70,5315.7607,N,05022.3612,E,1,4,0.9,50.0,M,0.0,M,,*59
$GPVTG,86.8,T,,M,5.4,N,10.0,K,S*19
$GPGGA,214039.80,5315.7607,N,05022.3609,E,1,4,0.9,50.0,M,0.0,M,,*5C
$GPVTG,86.8,T,,M,5.4,N,10.0,K,S*19
$GPGGA,214039.91,5315.7607,N,05022.3607,E,1,4,0.9,50.0,M,0.0,M,,*52
$GPVTG,86.9,T,,M,5.4,N,10.0,K,S*18
$GPGGA,214040.01,5315.7607,N,05022.3604,E,1,4,0.9,50.0,M,0.0,M,,*56
$GPVTG,86.9,T,,M,5.4,N,10.0,K,S*18
$GPGGA,214040.11,5315.7607,N,05022.3602,E,1,4,0.9,50.0,M,0.0,M,,*51
$GPVTG,87.0,T,,M,5.4,N,10.0,K,S*10
$GPGGA,214040.21,5315.7607,N,05022.3599,E,1,4,0.9,50.0,M,0.0,M,,*53
$GPVTG,87.0,T,,M,5.4,N,10.0,K,S*10
$GPGGA,214040.31,5315.7607,N,05022.3597,E,1,4,0.9,50.0,M,0.0,M,,*5C
$GPVTG,87.0,T,,M,5.4,N,10.0,K,S*10
$GPGGA,214040.41,5315.7608,N,05022.3594,E,1,4,0.9,50.0,M,0.0,M,,*57
$GPVTG,87.1,T,,M,5.4,N,10.0,K,S*11
$GPGGA,214040.51,5315.7608,N,05022.3592,E,1,4,0.9,50.0,M,0.0,M,,*50
$GPVTG,87.1,T,,M,5.4,N,10.0,K,S*11
$GPGGA,214040.61,5315.7608,N,05022.3590,E,1,4,0.9,50.0,M,0.0,M,,*51
$GPVTG,87.1,T,,M,5.4,N,10.0,K,S*11
$GPGGA,214040.71,5315.7609,N,05022.3587,E,1,4,0.9,50.0,M,0.0,M,,*57
$GPVTG,87.2,T,,M,5.4,N,10.0,K,S*12
$GPGGA,214040.81,5315.7609,N,05022.3585,E,1,4,0.9,50.0,M,0.0,M,,*5A
$GPVTG,87.2,T,,M,5.4,N,10.0,K,S*12
$GPGGA,214040.91,5315.7610,N,05022.3583,E,1,4,0.9,50.0,M,0.0,M,,*55
$GPVTG,87.3,T,,M,5.4,N,10.0,K,S*13
$GPGGA,214041.01,5315.7610,N,05022.3580,E,1,4,0.9,50.0,M,0.0,M,,*5E
$GPVTG,87.3,T,,M,5.4,N,10.0,K,S*13
$GPGGA,214041.11,5315.7611,N,05022.3578,E,1,4,0.9,50.0,M,0.0,M,,*59
$GPVTG,87.3,T,,M,5.4,N,10.0,K,S*13
$GPGGA,214041.21,5315.7612,N,05022.3576,E,1,4,0.9,50.0,M,0.0,M,,*57
$GPVTG,87.4,T,,M,5.4,N,10.0,K,S*14
$GPGGA,214041.31,5315.7613,N,05022.3574,E,1,4,0.9,50.0,M,0.0,M,,*55
$GPVTG,87.4,T,,M,5.4,N,10.0,K,S*14
$GPGGA,214041.41,5315.7613,N,05022.3572,E,1,4,0.9,50.0,M,0.0,M,,*54
$GPVTG,87.4,T,,M,5.4,N,10.0,K,S*14
$GPGGA,214041.51,5315.7614,N,05022.3570,E,1,4,0.9,50.0,M,0.0,M,,*50
$GPVTG,87.5,T,,M,5.4,N,10.0,K,S*15
$GPGGA,214041.61,5315.7615,N,05022.3568,E,1,4,0.9,50.0,M,0.0,M,,*5B
$GPVTG,87.5,T,,M,5.4,N,10.0,K,S*15
$GPGGA,214041.71,5315.7616,N,05022.3566,E,1,4,0.9,50.0,M,0.0,M,,*57
$GPVTG,87.6,T,,M,5.4,N,10.0,K,S*16
$GPGGA,214041.81,5315.7617,N,05022.3564,E,1,4,0.9,50.0,M,0.0,M,,*5B
$GPVTG,87.6,T,,M,5.4,N,10.0,K,S*16
$GPGGA,214041.91,5315.7618,N,05022.3562,E,1,4,0.9,50.0,M,0.0,M,,*53
$GPVTG,87.6,T,,M,5.4,N,10.0,K,S*16
$GPGGA,214042.01,5315.7619,N,05022.3560,E,1,4,0.9,50.0,M,0.0,M,,*5A
$GPVTG,87.7,T,,M,5.4,N,10.0,K,S*17
$GPGGA,214042.11,5315.7620,N,05022.3558,E,1,4,0.9,50.0,M,0.0,M,,*5A
$GPVTG,87.7,T,,M,5.4,N,10.0,K,S*17
$GPGGA,214042.21,5315.7621,N,05022.3557,E,1,4,0.9,50.0,M,0.0,M,,*57
$GPVTG,87.7,T,,M,5.4,N,10.0,K,S*17
$GPGGA,214042.31,5315.7623,N,05022.3555,E,1,4,0.9,50.0,M,0.0,M,,*56
$GPVTG,87.8,T,,M,5.4,N,10.0,K,S*18
$GPGGA,214042.41,5315.7624,N,05022.3554,E,1,4,0.9,50.0,M,0.0,M,,*57
$GPVTG,87.8,T,,M,5.4,N,10.0,K,S*18
$GPGGA,214042.51,5315.7625,N,05022.3552,E,1,4,0.9,50.0,M,0.0,M,,*51
$GPVTG,87.9,T,,M,5.4,N,10.0,K,S*19
$GPGGA,214042.61,5315.7626,N,05022.3551,E,1,4,0.9,50.0,M,0.0,M,,*52
$GPVTG,87.9,T,,M,5.4,N,10.0,K,S*19
$GPGGA,214042.71,5315.7628,N,05022.3550,E,1,4,0.9,50.0,M,0.0,M,,*5C
$GPVTG,87.9,T,,M,5.4,N,10.0,K,S*19
$GPGGA,214042.81,5315.7629,N,05022.3549,E,1,4,0.9,50.0,M,0.0,M,,*5A
$GPVTG,88.0,T,,M,5.4,N,10.0,K,S*1F
$GPGGA,214042.91,5315.7630,N,05022.3548,E,1,4,0.9,50.0,M,0.0,M,,*52
$GPVTG,88.0,T,,M,5.4,N,10.0,K,S*1F
$GPGGA,214043.01,5315.7632,N,05022.3547,E,1,4,0.9,50.0,M,0.0,M,,*57
$GPVTG,88.0,T,,M,5.4,N,10.0,K,S*1F
$GPGGA,214043.11,5315.7633,N,05022.3546,E,1,4,0.9,50.0,M,0.0,M,,*56
$GPVTG,88.1,T,,M,5.4,N,10.0,K,S*1E
$GPGGA,214043.22,5315.7634,N,05022.3545,E,1,4,0.9,50.0,M,0.0,M,,*52
$GPVTG,88.1,T,,M,5.4,N,10.0,K,S*1E
$GPGGA,214043.32,5315.7636,N,05022.3544,E,1,4,0.9,50.0,M,0.0,M,,*50
$GPVTG,88.2,T,,M,5.4,N,10.0,K,S*1D
$GPGGA,214043.42,5315.7637,N,05022.3544,E,1,4,0.9,50.0,M,0.0,M,,*56
$GPVTG,88.2,T,,M,5.4,N,10.0,K,S*1D
$GPGGA,214043.52,5315.7639,N,05022.3543,E,1,4,0.9,50.0,M,0.0,M,,*5E
$GPVTG,88.2,T,,M,5.4,N,10.0,K,S*1D
$GPGGA,214043.62,5315.7640,N,05022.3542,E,1,4,0.9,50.0,M,0.0,M,,*52
$GPVTG,88.3,T,,M,5.4,N,10.0,K,S*1C
$GPGGA,214043.72,5315.7642,N,05022.3542,E,1,4,0.9,50.0,M,0.0,M,,*51
$GPVTG,88.3,T,,M,5.4,N,10.0,K,S*1C
$GPGGA,214043.82,5315.7643,N,05022.3542,E,1,4,0.9,50.0,M,0.0,M,,*5F
$GPVTG,88.3,T,,M,5.4,N,10.0,K,S*1C
$GPGGA,214043.92,5315.7645,N,05022.3542,E,1,4,0.9,50.0,M,0.0,M,,*58
$GPVTG,88.4,T,,M,5.4,N,10.0,K,S*1B
$GPGGA,214044.02,5315.7646,N,05022.3542,E,1,4,0.9,50.0,M,0.0,M,,*55
$GPVTG,88.4,T,,M,5.4,N,10.0,K,S*1B
$GPGGA,214044.12,5315.7648,N,05022.3542,E,1,4,0.9,50.0,M,0.0,M,,*5A
$GPVTG,88.4,T,,M,5.4,N,10.0,K,S*1B
$GPGGA,214044.22,5315.7649,N,05022.3542,E,1,4,0.9,50.0,M,0.0,M,,*58
$GPVTG,88.5,T,,M,5.4,N,10.0,K,S*1A
$GPGGA,214044.32,5315.7651,N,05022.3542,E,1,4,0.9,50.0,M,0.0,M,,*50
$GPVTG,88.5,T,,M,5.4,N,10.0,K,S*1A
$GPGGA,214044.42,5315.7652,N,05022.3542,E,1,4,0.9,50.0,M,0.0,M,,*54
$GPVTG,88.6,T,,M,5.4,N,10.0,K,S*19
$GPGGA,214044.52,5315.7654,N,05022.3543,E,1,4,0.9,50.0,M,0.0,M,,*52
$GPVTG,88.6,T,,M,5.4,N,10.0,K,S*19
$GPGGA,214044.62,5315.7655,N,05022.3543,E,1,4,0.9,50.0,M,0.0,M,,*50
$GPVTG,88.6,T,,M,5.4,N,10.0,K,S*19
$GPGGA,214044.72,5315.7657,N,05022.3544,E,1,4,0.9,50.0,M,0.0,M,,*54
$GPVTG,88.7,T,,M,5.4,N,10.0,K,S*18
$GPGGA,214044.82,5315.7658,N,05022.3544,E,1,4,0.9,50.0,M,0.0,M,,*54
$GPVTG,88.7,T,,M,5.4,N,10.0,K,S*18
$GPGGA,214044.92,5315.7660,N,05022.3545,E,1,4,0.9,50.0,M,0.0,M,,*5F
$GPVTG,88.7,T,,M,5.4,N,10.0,K,S*18
$GPGGA,214045.02,5315.7661,N,05022.3546,E,1,4,0.9,50.0,M,0.0,M,,*55
$GPVTG,88.8,T,,M,5.4,N,10.0,K,S*17
$GPGGA,214045.12,5315.7662,N,05022.3547,E,1,4,0.9,50.0,M,0.0,M,,*56
$GPVTG,88.8,T,,M,5.4,N,10.0,K,S*17
$GPGGA,214045.22,5315.7664,N,05022.3548,E,1,4,0.9,50.0,M,0.0,M,,*5C
$GPVTG,88.9,T,,M,5.4,N,10.0,K,S*16
$GPGGA,214045.32,5315.7665,N,05022.3549,E,1,4,0.9,50.0,M,0.0,M,,*5D
$GPVTG,88.9,T,,M,5.4,N,10.0,K,S*16
$GPGGA,214045.42,5315.7666,N,05022.3550,E,1,4,0.9,50.0,M,0.0,M,,*51
$GPVTG,88.9,T,,M,5.4,N,10.0,K,S*16
$GPGGA,214045.52,5315.7668,N,05022.3551,E,1,4,0.9,50.0,M,0.0,M,,*5F
$GPVTG,89.0,T,,M,5.4,N,10.0,K,S*1E
$GPGGA,214045.62,5315.7669,N,05022.3552,E,1,4,0.9,50.0,M,0.0,M,,*5E
$GPVTG,89.0,T,,M,5.4,N,10.0,K,S*1E
$GPGGA,214045.72,5315.7670,N,05022.3554,E,1,4,0.9,50.0,M,0.0,M,,*51
$GPVTG,89.0,T,,M,5.4,N,10.0,K,S*1E
$GPGGA,214045.82,5315.7671,N,05022.3555,E,1,4,0.9,50.0,M,0.0,M,,*5E
$GPVTG,89.1,T,,M,5.4,N,10.0,K,S*1F
$GPGGA,214045.92,5315.7673,N,05022.3557,E,1,4,0.9,50.0,M,0.0,M,,*5F
$GPVTG,89.1,T,,M,5.4,N,10.0,K,S*1F
$GPGGA,214046.02,5315.7674,N,05022.3558,E,1,4,0.9,50.0,M,0.0,M,,*5D
$GPVTG,89.2,T,,M,5.4,N,10.0,K,S*1C
$GPGGA,214046.12,5315.7675,N,05022.3560,E,1,4,0.9,50.0,M,0.0,M,,*56
$GPVTG,89.2,T,,M,5.4,N,10.0,K,S*1C
$GPGGA,214046.22,5315.7676,N,05022.3562,E,1,4,0.9,50.0,M,0.0,M,,*54
$GPVTG,89.2,T,,M,5.4,N,10.0,K,S*1C
$GPGGA,214046.32,5315.7677,N,05022.3564,E,1,4,0.9,50.0,M,0.0,M,,*52
$GPVTG,89.3,T,,M,5.4,N,10.0,K,S*1D
$GPGGA,214046.42,5315.7678,N,05022.3566,E,1,4,0.9,50.0,M,0.0,M,,*58
$GPVTG,89.3,T,,M,5.4,N,10.0,K,S*1D
$GPGGA,214046.53,5315.7679,N,05022.3568,E,1,4,0.9,50.0,M,0.0,M,,*57
$GPVTG,89.3,T,,M,5.4,N,10.0,K,S*1D
$GPGGA,214046.63,5315.7680,N,05022.3570,E,1,4,0.9,50.0,M,0.0,M,,*5B
$GPVTG,89.4,T,,M,5.4,N,10.0,K,S*1A
$GPGGA,214046.73,5315.7681,N,05022.3572,E,1,4,0.9,50.0,M,0.0,M,,*59
$GPVTG,89.4,T,,M,5.4,N,10.0,K,S*1A
$GPGGA,214046.83,5315.7681,N,05022.3574,E,1,4,0.9,50.0,M,0.0,M,,*50
$GPVTG,89.5,T,,M,5.4,N,10.0,K,S*1B
$GPGGA,214046.93,5315.7682,N,05022.3576,E,1,4,0.9,50.0,M,0.0,M,,*50
$GPVTG,89.5,T,,M,5.4,N,10.0,K,S*1B
$GPGGA,214047.03,5315.7683,N,05022.3578,E,1,4,0.9,50.0,M,0.0,M,,*57
$GPVTG,89.5,T,,M,5.4,N,10.0,K,S*1B
$GPGGA,214047.13,5315.7683,N,05022.3580,E,1,4,0.9,50.0,M,0.0,M,,*51
$GPVTG,89.6,T,,M,5.4,N,10.0,K,S*18
$GPGGA,214047.23,5315.7684,N,05022.3583,E,1,4,0.9,50.0,M,0.0,M,,*56
$GPVTG,89.6,T,,M,5.4,N,10.0,K,S*18
$GPGGA,214047.33,5315.7685,N,05022.3585,E,1,4,0.9,50.0,M,0.0,M,,*50
$GPVTG,89.6,T,,M,5.4,N,10.0,K,S*18
$GPGGA,214047.43,5315.7685,N,05022.3587,E,1,4,0.9,50.0,M,0.0,M,,*55
$GPVTG,89.7,T,,M,5.4,N,10.0,K,S*19
$GPGGA,214047.53,5315.7686,N,05022.3590,E,1,4,0.9,50.0,M,0.0,M,,*51
$GPVTG,89.7,T,,M,5.4,N,10.0,K,S*19
$GPGGA,214047.63,5315.7686,N,05022.3592,E,1,4,0.9,50.0,M,0.0,M,,*50
$GPVTG,89.8,T,,M,5.4,N,10.0,K,S*16
$GPGGA,214047.73,5315.7686,N,05022.3595,E,1,4,0.9,50.0,M,0.0,M,,*56
$GPVTG,89.8,T,,M,5.4,N,10.0,K,S*16
$GPGGA,214047.83,5315.7687,N,05022.3597,E,1,4,0.9,50.0,M,0.0,M,,*5A
$GPVTG,89.8,T,,M,5.4,N,10.0,K,S*16
$GPGGA,214047.93,5315.7687,N,05022.3599,E,1,4,0.9,50.0,M,0.0,M,,*55
$GPVTG,89.9,T,,M,5.4,N,10.0,K,S*17
$GPGGA,214048.03,5315.7687,N,05022.3602,E,1,4,0.9,50.0,M,0.0,M,,*52
$GPVTG,89.9,T,,M,5.4,N,10.0,K,S*17
$GPGGA,214048.13,5315.7687,N,05022.3604,E,1,4,0.9,50.0,M,0.0,M,,*55
$GPVTG,89.9,T,,M,5.4,N,10.0,K,S*17
$GPGGA,214048.23,5315.7687,N,05022.3607,E,1,4,0.9,50.0,M,0.0,M,,*55
$GPVTG,90.0,T,,M,5.4,N,10.0,K,S*16
$GPGGA,214048.33,5315.7687,N,05022.3609,E,1,4,0.9,50.0,M,0.0,M,,*5A
$GPVTG,90.0,T,,M,5.4,N,10.0,K,S*16
$GPGGA,214048.43,5315.7687,N,05022.3612,E,1,4,0.9,50.0,M,0.0,M,,*57
$GPVTG,90.0,T,,M,5.4,N,10.0,K,S*16
$GPGGA,214048.53,5315.7687,N,05022.3614,E,1,4,0.9,50.0,M,0.0,M,,*50
$GPVTG,90.1,T,,M,5.4,N,10.0,K,S*17
$GPGGA,214048.63,5315.7687,N,05022.3617,E,1,4,0.9,50.0,M,0.0,M,,*50
$GPVTG,90.1,T,,M,5.4,N,10.0,K,S*17
$GPGGA,214048.73,5315.7687,N,05022.3619,E,1,4,0.9,50.0,M,0.0,M,,*5F
$GPVTG,90.2,T,,M,5.4,N,10.0,K,S*14
$GPGGA,214048.83,5315.7686,N,05022.3622,E,1,4,0.9,50.0,M,0.0,M,,*59
$GPVTG,90.2,T,,M,5.4,N,10.0,K,S*14
$GPGGA,214048.93,5315.7686,N,05022.3624,E,1,4,0.9,50.0,M,0.0,M,,*5E
$GPVTG,90.2,T,,M,5.4,N,10.0,K,S*14
$GPGGA,214049.03,5315.7686,N,05022.3627,E,1,4,0.9,50.0,M,0.0,M,,*55
$GPVTG,90.3,T,,M,5.4,N,10.0,K,S*15
$GPGGA,214049.13,5315.7685,N,05022.3629,E,1,4,0.9,50.0,M,0.0,M,,*59
$GPVTG,90.3,T,,M,5.4,N,10.0,K,S*15
$GPGGA,214049.23,5315.7685,N,05022.3631,E,1,4,0.9,50.0,M,0.0,M,,*53
$GPVTG,90.3,T,,M,5.4,N,10.0,K,S*15
$GPGGA,214049.33,5315.7684,N,05022.3634,E,1,4,0.9,50.0,M,0.0,M,,*56
$GPVTG,90.4,T,,M,5.4,N,10.0,K,S*12
$GPGGA,214049.43,5315.7684,N,05022.3636,E,1,4,0.9,50.0,M,0.0,M,,*53
$GPVTG,90.4,T,,M,5.4,N,10.0,K,S*12
$GPGGA,214049.53,5315.7683,N,05022.3638,E,1,4,0.9,50.0,M,0.0,M,,*5B
$GPVTG,90.5,T,,M,5.4,N,10.0,K,S*13
$GPGGA,214049.63,5315.7682,N,05022.3641,E,1,4,0.9,50.0,M,0.0,M,,*57
$GPVTG,90.5,T,,M,5.4,N,10.0,K,S*13
$GPGGA,214049.73,5315.7682,N,05022.3643,E,1,4,0.9,50.0,M,0.0,M,,*54
$GPVTG,90.5,T,,M,5.4,N,10.0,K,S*13
$GPGGA,214049.83,5315.7681,N,05022.3645,E,1,4,0.9,50.0,M,0.0,M,,*5E
$GPVTG,90.6,T,,M,5.4,N,10.0,K,S*10
$GPGGA,214049.94,5315.7680,N,05022.3647,E,1,4,0.9,50.0,M,0.0,M,,*5B
$GPVTG,90.6,T,,M,5.4,N,10.0,K,S*10
$GPGGA,214050.04,5315.7679,N,05022.3649,E,1,4,0.9,50.0,M,0.0,M,,*52
$GPVTG,90.6,T,,M,5.4,N,10.0,K,S*10
$GPGGA,214050.14,5315.7678,N,05022.3651,E,1,4,0.9,50.0,M,0.0,M,,*5B
$GPVTG,90.7,T,,M,5.4,N,10.0,K,S*11
$GPGGA,214050.24,5315.7677,N,05022.3653,E,1,4,0.9,50.0,M,0.0,M,,*55
$GPVTG,90.7,T,,M,5.4,N,10.0,K,S*11
$GPGGA,214050.34,5315.7676,N,05022.3655,E,1,4,0.9,50.0,M,0.0,M,,*53
$GPVTG,90.8,T,,M,5.4,N,10.0,K,S*1E
$GPGGA,214050.44,5315.7675,N,05022.3656,E,1,4,0.9,50.0,M,0.0,M,,*54
$GPVTG,90.8,T,,M,5.4,N,10.0,K,S*1E
$GPGGA,214050.54,5315.7674,N,05022.3658,E,1,4,0.9,50.0,M,0.0,M,,*5A
$GPVTG,90.8,T,,M,5.4,N,10.0,K,S*1E
$GPGGA,214050.64,5315.7673,N,05022.3660,E,1,4,0.9,50.0,M,0.0,M,,*55
$GPVTG,90.9,T,,M,5.4,N,10.0,K,S*1F
$GPGGA,214050.74,5315.7672,N,05022.3661,E,1,4,0.9,50.0,M,0.0,M,,*54
$GPVTG,90.9,T,,M,5.4,N,10.0,K,S*1F
$GPGGA,214050.84,5315.7671,N,05022.3663,E,1,4,0.9,50.0,M,0.0,M,,*5A
$GPVTG,90.9,T,,M,5.4,N,10.0,K,S*1F
$GPGGA,214050.94,5315.7669,N,05022.3664,E,1,4,0.9,50.0,M,0.0,M,,*55
$GPVTG,91.0,T,,M,5.4,N,10.0,K,S*17
$GPGGA,214051.04,5315.7668,N,05022.3666,E,1,4,0.9,50.0,M,0.0,M,,*5E
$GPVTG,91.0,T,,M,5.4,N,10.0,K,S*17
$GPGGA,214051.14,5315.7667,N,05022.3667,E,1,4,0.9,50.0,M,0.0,M,,*51
$GPVTG,91.1,T,,M,5.4,N,10.0,K,S*16
$GPGGA,214051.24,5315.7666,N,05022.3668,E,1,4,0.9,50.0,M,0.0,M,,*5C
$GPVTG,91.1,T,,M,5.4,N,10.0,K,S*16
$GPGGA,214051.34,5315.7664,N,05022.3669,E,1,4,0.9,50.0,M,0.0,M,,*5E
$GPVTG,91.1,T,,M,5.4,N,10.0,K,S*16
$GPGGA,214051.44,5315.7663,N,05022.3670,E,1,4,0.9,50.0,M,0.0,M,,*56
$GPVTG,91.2,T,,M,5.4,N,10.0,K,S*15
$GPGGA,214051.54,5315.7661,N,05022.3671,E,1,4,0.9,50.0,M,0.0,M,,*54
$GPVTG,91.2,T,,M,5.4,N,10.0,K,S*15
$GPGGA,214051.64,5315.7660,N,05022.3672,E,1,4,0.9,50.0,M,0.0,M,,*55
$GPVTG,91.2,T,,M,5.4,N,10.0,K,S*15
$GPGGA,214051.74,5315.7659,N,05022.3673,E,1,4,0.9,50.0,M,0.0,M,,*5F
$GPVTG,91.3,T,,M,5.4,N,10.0,K,S*14
$GPGGA,214051.84,5315.7657,N,05022.3674,E,1,4,0.9,50.0,M,0.0,M,,*59
$GPVTG,91.3,T,,M,5.4,N,10.0,K,S*14
$GPGGA,214051.94,5315.7656,N,05022.3674,E,1,4,0.9,50.0,M,0.0,M,,*59
$GPVTG,91.4,T,,M,5.4,N,10.0,K,S*13
$GPGGA,214052.04,5315.7654,N,05022.3675,E,1,4,0.9,50.0,M,0.0,M,,*50
$GPVTG,91.4,T,,M,5.4,N,10.0,K,S*13
$GPGGA,214052.14,5315.7653,N,05022.3675,E,1,4,0.9,50.0,M,0.0,M,,*56
$GPVTG,91.4,T,,M,5.4,N,10.0,K,S*13
$GPGGA,214052.24,5315.7651,N,05022.3675,E,1,4,0.9,50.0,M,0.0,M,,*57
$GPVTG,91.5,T,,M,5.4,N,10.0,K,S*12
$GPGGA,214052.34,5315.7650,N,05022.3676,E,1,4,0.9,50.0,M,0.0,M,,*54
$GPVTG,91.5,T,,M,5.4,N,10.0,K,S*12
$GPGGA,214052.44,5315.7648,N,05022.3676,E,1,4,0.9,50.0,M,0.0,M,,*5A
$GPVTG,91.5,T,,M,5.4,N,10.0,K,S*12
$GPGGA,214052.54,5315.7647,N,05022.3676,E,1,4,0.9,50.0,M,0.0,M,,*54
$GPVTG,91.6,T,,M,5.4,N,10.0,K,S*11
$GPGGA,214052.64,5315.7645,N,05022.3676,E,1,4,0.9,50.0,M,0.0,M,,*55
$GPVTG,91.6,T,,M,5.4,N,10.0,K,S*11
$GPGGA,214052.74,5315.7644,N,05022.3676,E,1,4,0.9,50.0,M,0.0,M,,*55
$GPVTG,91.6,T,,M,5.4,N,10.0,K,S*11
$GPGGA,214052.84,5315.7642,N,05022.3675,E,1,4,0.9,50.0,M,0.0,M,,*5F
$GPVTG,91.7,T,,M,5.4,N,10.0,K,S*10
$GPGGA,214052.94,5315.7641,N,05022.3675,E,1,4,0.9,50.0,M,0.0,M,,*5D
$GPVTG,91.7,T,,M,5.4,N,10.0,K,S*10
$GPGGA,214053.04,5315.7639,N,05022.3675,E,1,4,0.9,50.0,M,0.0,M,,*5A
$GPVTG,91.8,T,,M,5.4,N,10.0,K,S*1F
$GPGGA,214053.14,5315.7638,N,05022.3674,E,1,4,0.9,50.0,M,0.0,M,,*5B
$GPVTG,91.8,T,,M,5.4,N,10.0,K,S*1F
$GPGGA,214053.25,5315.7636,N,05022.3673,E,1,4,0.9,50.0,M,0.0,M,,*50
$GPVTG,91.8,T,,M,5.4,N,10.0,K,S*1F
$GPGGA,214053.35,5315.7635,N,05022.3673,E,1,4,0.9,50.0,M,0.0,M,,*52
$GPVTG,91.9,T,,M,5.4,N,10.0,K,S*1E
$GPGGA,214053.45,5315.7634,N,05022.3672,E,1,4,0.9,50.0,M,0.0,M,,*55
$GPVTG,91.9,T,,M,5.4,N,10.0,K,S*1E
$GPGGA,214053.55,5315.7632,N,05022.3671,E,1,4,0.9,50.0,M,0.0,M,,*51
$GPVTG,91.9,T,,M,5.4,N,10.0,K,S*1E
$GPGGA,214053.65,5315.7631,N,05022.3670,E,1,4,0.9,50.0,M,0.0,M,,*50
$GPVTG,92.0,T,,M,5.4,N,10.0,K,S*14
$GPGGA,214053.75,5315.7629,N,05022.3669,E,1,4,0.9,50.0,M,0.0,M,,*50
$GPVTG,92.0,T,,M,5.4,N,10.0,K,S*14
$GPGGA,214053.85,5315.7628,N,05022.3668,E,1,4,0.9,50.0,M,0.0,M,,*5F
$GPVTG,92.1,T,,M,5.4,N,10.0,K,S*15
$GPGGA,214053.95,5315.7627,N,05022.3667,E,1,4,0.9,50.0,M,0.0,M,,*5E
$GPVTG,92.1,T,,M,5.4,N,10.0,K,S*15
$GPGGA,214054.05,5315.7626,N,05022.3665,E,1,4,0.9,50.0,M,0.0,M,,*53
$GPVTG,92.1,T,,M,5.4,N,10.0,K,S*15
$GPGGA,214054.15,5315.7624,N,05022.3664,E,1,4,0.9,50.0,M,0.0,M,,*51
$GPVTG,92.2,T,,M,5.4,N,10.0,K,S*16
$GPGGA,214054.25,5315.7623,N,05022.3663,E,1,4,0.9,50.0,M,0.0,M,,*52
$GPVTG,92.2,T,,M,5.4,N,10.0,K,S*16
$GPGGA,214054.35,5315.7622,N,05022.3661,E,1,4,0.9,50.0,M,0.0,M,,*50
$GPVTG,92.2,T,,M,5.4,N,10.0,K,S*16
$GPGGA,214054.45,5315.7621,N,05022.3660,E,1,4,0.9,50.0,M,0.0,M,,*55
$GPVTG,92.3,T,,M,5.4,N,10.0,K,S*17
$GPGGA,214054.55,5315.7620,N,05022.3658,E,1,4,0.9,50.0,M,0.0,M,,*5E
$GPVTG,92.3,T,,M,5.4,N,10.0,K,S*17
$GPGGA,214054.65,5315.7619,N,05022.3656,E,1,4,0.9,50.0,M,0.0,M,,*59
$GPVTG,92.4,T,,M,5.4,N,10.0,K,S*10
$GPGGA,214054.75,5315.7617,N,05022.3654,E,1,4,0.9,50.0,M,0.0,M,,*54
$GPVTG,92.4,T,,M,5.4,N,10.0,K,S*10
$GPGGA,214054.85,5315.7616,N,05022.3652,E,1,4,0.9,50.0,M,0.0,M,,*5C
$GPVTG,92.4,T,,M,5.4,N,10.0,K,S*10
$GPGGA,214054.95,5315.7616,N,05022.3651,E,1,4,0.9,50.0,M,0.0,M,,*5E
$GPVTG,92.5,T,,M,5.4,N,10.0,K,S*11
$GPGGA,214055.05,5315.7615,N,05022.3649,E,1,4,0.9,50.0,M,0.0,M,,*5C
$GPVTG,92.5,T,,M,5.4,N,10.0,K,S*11
$GPGGA,214055.15,5315.7614,N,05022.3647,E,1,4,0.9,50.0,M,0.0,M,,*52
$GPVTG,92.5,T,,M,5.4,N,10.0,K,S*11
$GPGGA,214055.25,5315.7613,N,05022.3644,E,1,4,0.9,50.0,M,0.0,M,,*55
$GPVTG,92.6,T,,M,5.4,N,10.0,K,S*12
$GPGGA,214055.35,5315.7612,N,05022.3642,E,1,4,0.9,50.0,M,0.0,M,,*53
$GPVTG,92.6,T,,M,5.4,N,10.0,K,S*12
$GPGGA,214055.45,5315.7611,N,05022.3640,E,1,4,0.9,50.0,M,0.0,M,,*55
$GPVTG,92.7,T,,M,5.4,N,10.0,K,S*13
$GPGGA,214055.55,5315.7611,N,05022.3638,E,1,4,0.9,50.0,M,0.0,M,,*5B
$GPVTG,92.7,T,,M,5.4,N,10.0,K,S*13
$GPGGA,214055.65,5315.7610,N,05022.3636,E,1,4,0.9,50.0,M,0.0,M,,*57
$GPVTG,92.7,T,,M,5.4,N,10.0,K,S*13
$GPGGA,214055.75,5315.7610,N,05022.3633,E,1,4,0.9,50.0,M,0.0,M,,*53
$GPVTG,92.8,T,,M,5.4,N,10.0,K,S*1C
$GPGGA,214055.85,5315.7609,N,05022.3631,E,1,4,0.9,50.0,M,0.0,M,,*56
$GPVTG,92.8,T,,M,5.4,N,10.0,K,S*1C
$GPGGA,214055.95,5315.7609,N,05022.3629,E,1,4,0.9,50.0,M,0.0,M,,*5E
$GPVTG,92.8,T,,M,5.4,N,10.0,K,S*1C
$GPGGA,214056.05,5315.7608,N,05022.3626,E,1,4,0.9,50.0,M,0.0,M,,*5A
$GPVTG,92.9,T,,M,5.4,N,10.0,K,S*1D
$GPGGA,214056.15,5315.7608,N,05022.3624,E,1,4,0.9,50.0,M,0.0,M,,*59
$GPVTG,92.9,T,,M,5.4,N,10.0,K,S*1D
$GPGGA,214056.25,5315.7607,N,05022.3621,E,1,4,0.9,50.0,M,0.0,M,,*50
$GPVTG,93.0,T,,M,5.4,N,10.0,K,S*15
$GPGGA,214056.35,5315.7607,N,05022.3619,E,1,4,0.9,50.0,M,0.0,M,,*5A
$GPVTG,93.0,T,,M,5.4,N,10.0,K,S*15
$GPGGA,214056.46,5315.7607,N,05022.3616,E,1,4,0.9,50.0,M,0.0,M,,*51
$GPVTG,93.0,T,,M,5.4,N,10.0,K,S*15
$GPGGA,214056.56,5315.7607,N,05022.3614,E,1,4,0.9,50.0,M,0.0,M,,*52
$GPVTG,93.1,T,,M,5.4,N,10.0,K,S*14
$GPGGA,214056.66,5315.7607,N,05022.3611,E,1,4,0.9,50.0,M,0.0,M,,*54
$GPVTG,93.1,T,,M,5.4,N,10.0,K,S*14
$GPGGA,214056.76,5315.7607,N,05022.3609,E,1,4,0.9,50.0,M,0.0,M,,*5C
$GPVTG,93.1,T,,M,5.4,N,10.0,K,S*14
$GPGGA,214056.86,5315.7607,N,05022.3606,E,1,4,0.9,50.0,M,0.0,M,,*5C
$GPVTG,93.2,T,,M,5.4,N,10.0,K,S*17
$GPGGA,214056.96,5315.7607,N,05022.3604,E,1,4,0.9,50.0,M,0.0,M,,*5F
$GPVTG,93.2,T,,M,5.4,N,10.0,K,S*17
$GPGGA,214057.06,5315.7607,N,05022.3601,E,1,4,0.9,50.0,M,0.0,M,,*52
$GPVTG,93.2,T,,M,5.4,N,10.0,K,S*17
$GPGGA,214057.16,5315.7607,N,05022.3599,E,1,4,0.9,50.0,M,0.0,M,,*51
$GPVTG,93.3,T,,M,5.4,N,10.0,K,S*16
$GPGGA,214057.26,5315.7607,N,05022.3597,E,1,4,0.9,50.0,M,0.0,M,,*5C
$GPVTG,93.3,T,,M,5.4,N,10.0,K,S*16
$GPGGA,214057.36,5315.7608,N,05022.3594,E,1,4,0.9,50.0,M,0.0,M,,*51
$GPVTG,93.4,T,,M,5.4,N,10.0,K,S*11
$GPGGA,214057.46,5315.7608,N,05022.3592,E,1,4,0.9,50.0,M,0.0,M,,*50
$GPVTG,93.4,T,,M,5.4,N,10.0,K,S*11
$GPGGA,214057.56,5315.7608,N,05022.3589,E,1,4,0.9,50.0,M,0.0,M,,*5B
$GPVTG,93.4,T,,M,5.4,N,10.0,K,S*11
$GPGGA,214057.66,5315.7609,N,05022.3587,E,1,4,0.9,50.0,M,0.0,M,,*57
$GPVTG,93.5,T,,M,5.4,N,10.0,K,S*10
$GPGGA,214057.76,5315.7609,N,05022.3585,E,1,4,0.9,50.0,M,0.0,M,,*54
$GPVTG,93.5,T,,M,5.4,N,10.0,K,S*10
$GPGGA,214057.86,5315.7610,N,05022.3582,E,1,4,0.9,50.0,M,0.0,M,,*54
$GPVTG,93.5,T,,M,5.4,N,10.0,K,S*10
$GPGGA,214057.96,5315.7611,N,05022.3580,E,1,4,0.9,50.0,M,0.0,M,,*56
$GPVTG,93.6,T,,M,5.4,N,10.0,K,S*13
$GPGGA,214058.06,5315.7611,N,05022.3578,E,1,4,0.9,50.0,M,0.0,M,,*57
$GPVTG,93.6,T,,M,5.4,N,10.0,K,S*13
$GPGGA,214058.16,5315.7612,N,05022.3576,E,1,4,0.9,50.0,M,0.0,M,,*5B
$GPVTG,93.7,T,,M,5.4,N,10.0,K,S*12
$GPGGA,214058.26,5315.7613,N,05022.3573,E,1,4,0.9,50.0,M,0.0,M,,*5C
$GPVTG,93.7,T,,M,5.4,N,10.0,K,S*12
$GPGGA,214058.36,5315.7614,N,05022.3571,E,1,4,0.9,50.0,M,0.0,M,,*58
$GPVTG,93.7,T,,M,5.4,N,10.0,K,S*12
$GPGGA,214058.46,5315.7614,N,05022.3569,E,1,4,0.9,50.0,M,0.0,M,,*56
$GPVTG,93.8,T,,M,5.4,N,10.0,K,S*1D
$GPGGA,214058.56,5315.7615,N,05022.3567,E,1,4,0.9,50.0,M,0.0,M,,*58
$GPVTG,93.8,T,,M,5.4,N,10.0,K,S*1D
$GPGGA,214058.66,5315.7616,N,05022.3565,E,1,4,0.9,50.0,M,0.0,M,,*5A
$GPVTG,93.8,T,,M,5.4,N,10.0,K,S*1D
$GPGGA,214058.76,5315.7617,N,05022.3563,E,1,4,0.9,50.0,M,0.0,M,,*5C
$GPVTG,93.9,T,,M,5.4,N,10.0,K,S*1C
$GPGGA,214058.86,5315.7618,N,05022.3562,E,1,4,0.9,50.0,M,0.0,M,,*5D
$GPVTG,93.9,T,,M,5.4,N,10.0,K,S*1C
$GPGGA,214058.96,5315.7619,N,05022.3560,E,1,4,0.9,50.0,M,0.0,M,,*5F
$GPVTG,94.0,T,,M,5.4,N,10.0,K,S*12
$GPGGA,214059.06,5315.7620,N,05022.3558,E,1,4,0.9,50.0,M,0.0,M,,*56
$GPVTG,94.0,T,,M,5.4,N,10.0,K,S*12
$GPGGA,214059.16,5315.7622,N,05022.3557,E,1,4,0.9,50.0,M,0.0,M,,*5A
$GPVTG,94.0,T,,M,5.4,N,10.0,K,S*12
$GPGGA,214059.26,5315.7623,N,05022.3555,E,1,4,0.9,50.0,M,0.0,M,,*5A
$GPVTG,94.1,T,,M,5.4,N,10.0,K,S*13
$GPGGA,214059.36,5315.7624,N,05022.3554,E,1,4,0.9,50.0,M,0.0,M,,*5D
$GPVTG,94.1,T,,M,5.4,N,10.0,K,S*13
$GPGGA,214059.46,5315.7625,N,05022.3552,E,1,4,0.9,50.0,M,0.0,M,,*5D
$GPVTG,94.1,T,,M,5.4,N,10.0,K,S*13
$GPGGA,214059.56,5315.7627,N,05022.3551,E,1,4,0.9,50.0,M,0.0,M,,*5D
$GPVTG,94.2,T,,M,5.4,N,10.0,K,S*10
$GPGGA,214059.66,5315.7628,N,05022.3550,E,1,4,0.9,50.0,M,0.0,M,,*50
$GPVTG,94.2,T,,M,5.4,N,10.0,K,S*10
$GPGGA,214059.76,5315.7629,N,05022.3548,E,1,4,0.9,50.0,M,0.0,M,,*59
$GPVTG,94.3,T,,M,5.4,N,10.0,K,S*11
$GPGGA,214059.86,5315.7631,N,05022.3547,E,1,4,0.9,50.0,M,0.0,M,,*50
$GPVTG,94.3,T,,M,5.4,N,10.0,K,S*11
$GPGGA,214059.96,5315.7632,N,05022.3546,E,1,4,0.9,50.0,M,0.0,M,,*53
$GPVTG,94.3,T,,M,5.4,N,10.0,K,S*11
$GPGGA,214100.07,5315.7633,N,05022.3546,E,1,4,0.9,50.0,M,0.0,M,,*57
$GPVTG,94.4,T,,M,5.4,N,10.0,K,S*16
$GPGGA,214100.17,5315.7635,N,05022.3545,E,1,4,0.9,50.0,M,0.0,M,,*53
$GPVTG,94.4,T,,M,5.4,N,10.0,K,S*16
$GPGGA,214100.27,5315.7636,N,05022.3544,E,1,4,0.9,50.0,M,0.0,M,,*52
$GPVTG,94.4,T,,M,5.4,N,10.0,K,S*16
$GPGGA,214100.37,5315.7638,N,05022.3543,E,1,4,0.9,50.0,M,0.0,M,,*5A
$GPVTG,94.5,T,,M,5.4,N,10.0,K,S*17
$GPGGA,214100.47,5315.7639,N,05022.3543,E,1,4,0.9,50.0,M,0.0,M,,*5C
$GPVTG,94.5,T,,M,5.4,N,10.0,K,S*17
$GPGGA,214100.57,5315.7641,N,05022.3542,E,1,4,0.9,50.0,M,0.0,M,,*53
$GPVTG,94.6,T,,M,5.4,N,10.0,K,S*14
$GPGGA,214100.67,5315.7642,N,05022.3542,E,1,4,0.9,50.0,M,0.0,M,,*53
$GPVTG,94.6,T,,M,5.4,N,10.0,K,S*14
$GPGGA,214100.77,5315.7643,N,05022.3542,E,1,4,0.9,50.0,M,0.0,M,,*53
$GPVTG,94.6,T,,M,5.4,N,10.0,K,S*14
$GPGGA,214100.87,5315.7645,N,05022.3542,E,1,4,0.9,50.0,M,0.0,M,,*5A
$GPVTG,94.7,T,,M,5.4,N,10.0,K,S*15
$GPGGA,214100.97,5315.7646,N,05022.3542,E,1,4,0.9,50.0,M,0.0,M,,*58
$GPVTG,94.7,T,,M,5.4,N,10.0,K,S*15
$GPGGA,214101.07,5315.7648,N,05022.3542,E,1,4,0.9,50.0,M,0.0,M,,*5E
$GPVTG,94.7,T,,M,5.4,N,10.0,K,S*15
$GPGGA,214101.17,5315.7649,N,05022.3542,E,1,4,0.9,50.0,M,0.0,M,,*5E
$GPVTG,94.8,T,,M,5.4,N,10.0,K,S*1A
$GPGGA,214101.27,5315.7651,N,05022.3542,E,1,4,0.9,50.0,M,0.0,M,,*54
$GPVTG,94.8,T,,M,5.4,N,10.0,K,S*1A
$GPGGA,214101.37,5315.7652,N,05022.3542,E,1,4,0.9,50.0,M,0.0,M,,*56
$GPVTG,94.8,T,,M,5.4,N,10.0,K,S*1A
$GPGGA,214101.47,5315.7654,N,05022.3543,E,1,4,0.9,50.0,M,0.0,M,,*56
$GPVTG,94.9,T,,M,5.4,N,10.0,K,S*1B
$GPGGA,214101.57,5315.7655,N,05022.3543,E,1,4,0.9,50.0,M,0.0,M,,*56
$GPVTG,94.9,T,,M,5.4,N,10.0,K,S*1B
$GPGGA,214101.67,5315.7657,N,05022.3544,E,1,4,0.9,50.0,M,0.0,M,,*50
$GPVTG,95.0,T,,M,5.4,N,10.0,K,S*13
$GPGGA,214101.77,5315.7658,N,05022.3544,E,1,4,0.9,50.0,M,0.0,M,,*5E
$GPVTG,95.0,T,,M,5.4,N,10.0,K,S*13
$GPGGA,214101.87,5315.7660,N,05022.3545,E,1,4,0.9,50.0,M,0.0,M,,*5B
$GPVTG,95.0,T,,M,5.4,N,10.0,K,S*13
$GPGGA,214101.97,5315.7661,N,05022.3546,E,1,4,0.9,50.0,M,0.0,M,,*58
$GPVTG,95.1,T,,M,5.4,N,10.0,K,S*12
$GPGGA,214102.07,5315.7663,N,05022.3547,E,1,4,0.9,50.0,M,0.0,M,,*51
$GPVTG,95.1,T,,M,5.4,N,10.0,K,S*12
$GPGGA,214102.17,5315.7664,N,05022.3548,E,1,4,0.9,50.0,M,0.0,M,,*58
$GPVTG,95.1,T,,M,5.4,N,10.0,K,S*12
$GPGGA,214102.27,5315.7665,N,05022.3549,E,1,4,0.9,50.0,M,0.0,M,,*5B
$GPVTG,95.2,T,,M,5.4,N,10.0,K,S*11
$GPGGA,214102.37,5315.7667,N,05022.3550,E,1,4,0.9,50.0,M,0.0,M,,*50
$GPVTG,95.2,T,,M,5.4,N,10.0,K,S*11
$GPGGA,214102.47,5315.7668,N,05022.3551,E,1,4,0.9,50.0,M,0.0,M,,*59
$GPVTG,95.3,T,,M,5.4,N,10.0,K,S*10
$GPGGA,214102.57,5315.7669,N,05022.3553,E,1,4,0.9,50.0,M,0.0,M,,*5B
$GPVTG,95.3,T,,M,5.4,N,10.0,K,S*10
$GPGGA,214102.67,5315.7670,N,05022.3554,E,1,4,0.9,50.0,M,0.0,M,,*57
$GPVTG,95.3,T,,M,5.4,N,10.0,K,S*10
$GPGGA,214102.77,5315.7672,N,05022.3556,E,1,4,0.9,50.0,M,0.0,M,,*56
$GPVTG,95.4,T,,M,5.4,N,10.0,K,S*17
$GPGGA,214102.87,5315.7673,N,05022.3557,E,1,4,0.9,50.0,M,0.0,M,,*59
$GPVTG,95.4,T,,M,5.4,N,10.0,K,S*17
$GPGGA,214102.97,5315.7674,N,05022.3559,E,1,4,0.9,50.0,M,0.0,M,,*51
$GPVTG,95.4,T,,M,5.4,N,10.0,K,S*17
$GPGGA,214103.07,5315.7675,N,05022.3560,E,1,4,0.9,50.0,M,0.0,M,,*52
$GPVTG,95.5,T,,M,5.4,N,10.0,K,S*16
$GPGGA,214103.17,5315.7676,N,05022.3562,E,1,4,0.9,50.0,M,0.0,M,,*52
$GPVTG,95.5,T,,M,5.4,N,10.0,K,S*16
$GPGGA,214103.27,5315.7677,N,05022.3564,E,1,4,0.9,50.0,M,0.0,M,,*56
$GPVTG,95.6,T,,M,5.4,N,10.0,K,S*15
$GPGGA,214103.37,5315.7678,N,05022.3566,E,1,4,0.9,50.0,M,0.0,M,,*5A
$GPVTG,95.6,T,,M,5.4,N,10.0,K,S*15
$GPGGA,214103.47,5315.7679,N,05022.3568,E,1,4,0.9,50.0,M,0.0,M,,*52
$GPVTG,95.6,T,,M,5.4,N,10.0,K,S*15
$GPGGA,214103.57,5315.7680,N,05022.3570,E,1,4,0.9,50.0,M,0.0,M,,*5C
$GPVTG,95.7,T,,M,5.4,N,10.0,K,S*14
$GPGGA,214103.67,5315.7681,N,05022.3572,E,1,4,0.9,50.0,M,0.0,M,,*5C
$GPVTG,95.7,T,,M,5.4,N,10.0,K,S*14
$GPGGA,214103.77,5315.7681,N,05022.3574,E,1,4,0.9,50.0,M,0.0,M,,*5B
$GPVTG,95.7,T,,M,5.4,N,10.0,K,S*14
$GPGGA,214103.87,5315.7682,N,05022.3576,E,1,4,0.9,50.0,M,0.0,M,,*55
$GPVTG,95.8,T,,M,5.4,N,10.0,K,S*1B
$GPGGA,214103.97,5315.7683,N,05022.3579,E,1,4,0.9,50.0,M,0.0,M,,*5A
$GPVTG,95.8,T,,M,5.4,N,10.0,K,S*1B
$GPGGA,214104.08,5315.7684,N,05022.3581,E,1,4,0.9,50.0,M,0.0,M,,*5B
$GPVTG,95.9,T,,M,5.4,N,10.0,K,S*1A
$GPGGA,214104.18,5315.7684,N,05022.3583,E,1,4,0.9,50.0,M,0.0,M,,*58
$GPVTG,95.9,T,,M,5.4,N,10.0,K,S*1A
$GPGGA,214104.28,5315.7685,N,05022.3585,E,1,4,0.9,50.0,M,0.0,M,,*5C
$GPVTG,95.9,T,,M,5.4,N,10.0,K,S*1A
$GPGGA,214104.38,5315.7685,N,05022.3588,E,1,4,0.9,50.0,M,0.0,M,,*50
$GPVTG,96.0,T,,M,5.4,N,10.0,K,S*10
$GPGGA,214104.48,5315.7686,N,05022.3590,E,1,4,0.9,50.0,M,0.0,M,,*5D
$GPVTG,96.0,T,,M,5.4,N,10.0,K,S*10
$GPGGA,214104.58,5315.7686,N,05022.3593,E,1,4,0.9,50.0,M,0.0,M,,*5F
$GPVTG,96.0,T,,M,5.4,N,10.0,K,S*10
$GPGGA,214104.68,5315.7686,N,05022.3595,E,1,4,0.9,50.0,M,0.0,M,,*5A
$GPVTG,96.1,T,,M,5.4,N,10.0,K,S*11
$GPGGA,214104.78,5315.7687,N,05022.3597,E,1,4,0.9,50.0,M,0.0,M,,*58
$GPVTG,96.1,T,,M,5.4,N,10.0,K,S*11
$GPGGA,214104.88,5315.7687,N,05022.3600,E,1,4,0.9,50.0,M,0.0,M,,*5A
$GPVTG,96.2,T,,M,5.4,N,10.0,K,S*12
$GPGGA,214104.98,5315.7687,N,05022.3602,E,1,4,0.9,50.0,M,0.0,M,,*59
$GPVTG,96.2,T,,M,5.4,N,10.0,K,S*12
$GPGGA,214105.08,5315.7687,N,05022.3605,E,1,4,0.9,50.0,M,0.0,M,,*56
$GPVTG,96.2,T,,M,5.4,N,10.0,K,S*12
$GPGGA,214105.18,5315.7687,N,05022.3607,E,1,4,0.9,50.0,M,0.0,M,,*55
$GPVTG,96.3,T,,M,5.4,N,10.0,K,S*13
$GPGGA,214105.28,5315.7687,N,05022.3610,E,1,4,0.9,50.0,M,0.0,M,,*50
$GPVTG,96.3,T,,M,5.4,N,10.0,K,S*13
$GPGGA,214105.38,5315.7687,N,05022.3612,E,1,4,0.9,50.0,M,0.0,M,,*53
$GPVTG,96.3,T,,M,5.4,N,10.0,K,S*13
$GPGGA,2