$GPGGA,214114.00,5315.7667,N,05022.3667,E,1,4,0.9,50.0,M,0.0,M,,*54
$GPVTG,90.0,T,,M,5.4,N,10.0,K,S*16
$GPGGA,214114.10,5315.7667,N,05022.3669,E,1,4,0.9,50.0,M,0.0,M,,*5B
$GPVTG,90.0,T,,M,5.4,N,10.0,K,S*16
$GPGGA,214114.20,5315.7667,N,05022.3672,E,1,4,0.9,50.0,M,0.0,M,,*52
$GPVTG,90.0,T,,M,5.4,N,10.0,K,S*16
$GPGGA,214114.30,5315.7667,N,05022.3674,E,1,4,0.9,50.0,M,0.0,M,,*55
$GPVTG,89.9,T,,M,5.4,N,10.0,K,S*17
$GPGGA,214114.40,5315.7667,N,05022.3677,E,1,4,0.9,50.0,M,0.0,M,,*51
$GPVTG,89.9,T,,M,5.4,N,10.0,K,S*17
$GPGGA,214114.50,5315.7668,N,05022.3679,E,1,4,0.9,50.0,M,0.0,M,,*51
$GPVTG,89.9,T,,M,5.4,N,10.0,K,S*17
$GPGGA,214114.60,5315.7668,N,05022.3682,E,1,4,0.9,50.0,M,0.0,M,,*56
$GPVTG,89.9,T,,M,5.4,N,10.0,K,S*17
$GPGGA,214114.70,5315.7668,N,05022.3684,E,1,4,0.9,50.0,M,0.0,M,,*51
$GPVTG,89.8,T,,M,5.4,N,10.0,K,S*16
$GPGGA,214114.80,5315.7668,N,05022.3687,E,1,4,0.9,50.0,M,0.0,M,,*5D
$GPVTG,89.8,T,,M,5.4,N,10.0,K,S*16
$GPGGA,214114.90,5315.7669,N,05022.3689,E,1,4,0.9,50.0,M,0.0,M,,*53
$GPVTG,89.8,T,,M,5.4,N,10.0,K,S*16
$GPGGA,214115.00,5315.7669,N,05022.3692,E,1,4,0.9,50.0,M,0.0,M,,*51
$GPVTG,89.8,T,,M,5.4,N,10.0,K,S*16
$GPGGA,214115.10,5315.7669,N,05022.3694,E,1,4,0.9,50.0,M,0.0,M,,*56
$GPVTG,89.7,T,,M,5.4,N,10.0,K,S*19
$GPGGA,214115.20,5315.7670,N,05022.3696,E,1,4,0.9,50.0,M,0.0,M,,*5F
$GPVTG,89.7,T,,M,5.4,N,10.0,K,S*19
$GPGGA,214115.30,5315.7670,N,05022.3699,E,1,4,0.9,50.0,M,0.0,M,,*51
$GPVTG,89.7,T,,M,5.4,N,10.0,K,S*19
$GPGGA,214115.40,5315.7671,N,05022.3701,E,1,4,0.9,50.0,M,0.0,M,,*57
$GPVTG,89.7,T,,M,5.4,N,10.0,K,S*19
$GPGGA,214115.50,5315.7671,N,05022.3703,E,1,4,0.9,50.0,M,0.0,M,,*54
$GPVTG,89.6,T,,M,5.4,N,10.0,K,S*18
$GPGGA,214115.60,5315.7672,N,05022.3706,E,1,4,0.9,50.0,M,0.0,M,,*51
$GPVTG,89.6,T,,M,5.4,N,10.0,K,S*18
$GPGGA,214115.70,5315.7672,N,05022.3708,E,1,4,0.9,50.0,M,0.0,M,,*5E
$GPVTG,89.6,T,,M,5.4,N,10.0,K,S*18
$GPGGA,214115.80,5315.7673,N,05022.3710,E,1,4,0.9,50.0,M,0.0,M,,*59
$GPVTG,89.6,T,,M,5.4,N,10.0,K,S*18
$GPGGA,214115.90,5315.7674,N,05022.3713,E,1,4,0.9,50.0,M,0.0,M,,*5C
$GPVTG,89.5,T,,M,5.4,N,10.0,K,S*1B
$GPGGA,214116.00,5315.7674,N,05022.3715,E,1,4,0.9,50.0,M,0.0,M,,*50
$GPVTG,89.5,T,,M,5.4,N,10.0,K,S*1B
$GPGGA,214116.10,5315.7675,N,05022.3717,E,1,4,0.9,50.0,M,0.0,M,,*52
$GPVTG,89.5,T,,M,5.4,N,10.0,K,S*1B
$GPGGA,214116.20,5315.7676,N,05022.3719,E,1,4,0.9,50.0,M,0.0,M,,*5C
$GPVTG,89.5,T,,M,5.4,N,10.0,K,S*1B
$GPGGA,214116.30,5315.7677,N,05022.3721,E,1,4,0.9,50.0,M,0.0,M,,*57
$GPVTG,89.4,T,,M,5.4,N,10.0,K,S*1A
$GPGGA,214116.40,5315.7677,N,05022.3723,E,1,4,0.9,50.0,M,0.0,M,,*52
$GPVTG,89.4,T,,M,5.4,N,10.0,K,S*1A
$GPGGA,214116.50,5315.7678,N,05022.3725,E,1,4,0.9,50.0,M,0.0,M,,*5A
$GPVTG,89.4,T,,M,5.4,N,10.0,K,S*1A
$GPGGA,214116.60,5315.7679,N,05022.3727,E,1,4,0.9,50.0,M,0.0,M,,*5A
$GPVTG,89.4,T,,M,5.4,N,10.0,K,S*1A
$GPGGA,214116.70,5315.7680,N,05022.3729,E,1,4,0.9,50.0,M,0.0,M,,*53
$GPVTG,89.3,T,,M,5.4,N,10.0,K,S*1D
$GPGGA,214116.80,5315.7681,N,05022.3731,E,1,4,0.9,50.0,M,0.0,M,,*54
$GPVTG,89.3,T,,M,5.4,N,10.0,K,S*1D
$GPGGA,214116.90,5315.7682,N,05022.3733,E,1,4,0.9,50.0,M,0.0,M,,*54
$GPVTG,89.3,T,,M,5.4,N,10.0,K,S*1D
$GPGGA,214117.00,5315.7683,N,05022.3735,E,1,4,0.9,50.0,M,0.0,M,,*5B
$GPVTG,89.3,T,,M,5.4,N,10.0,K,S*1D
$GPGGA,214117.10,5315.7684,N,05022.3737,E,1,4,0.9,50.0,M,0.0,M,,*5F
$GPVTG,89.2,T,,M,5.4,N,10.0,K,S*1C
$GPGGA,214117.20,5315.7685,N,05022.3739,E,1,4,0.9,50.0,M,0.0,M,,*53
$GPVTG,89.2,T,,M,5.4,N,10.0,K,S*1C
$GPGGA,214117.30,5315.7686,N,05022.3741,E,1,4,0.9,50.0,M,0.0,M,,*5E
$GPVTG,89.2,T,,M,5.4,N,10.0,K,S*1C
$GPGGA,214117.40,5315.7687,N,05022.3742,E,1,4,0.9,50.0,M,0.0,M,,*5B
$GPVTG,89.2,T,,M,5.4,N,10.0,K,S*1C
$GPGGA,214117.50,5315.7688,N,05022.3744,E,1,4,0.9,50.0,M,0.0,M,,*53
$GPVTG,89.1,T,,M,5.4,N,10.0,K,S*1F
$GPGGA,214117.60,5315.7689,N,05022.3746,E,1,4,0.9,50.0,M,0.0,M,,*53
$GPVTG,89.1,T,,M,5.4,N,10.0,K,S*1F
$GPGGA,214117.71,5315.7691,N,05022.3747,E,1,4,0.9,50.0,M,0.0,M,,*5B
$GPVTG,89.1,T,,M,5.4,N,10.0,K,S*1F
$GPGGA,214117.81,5315.7692,N,05022.3749,E,1,4,0.9,50.0,M,0.0,M,,*59
$GPVTG,89.1,T,,M,5.4,N,10.0,K,S*1F
$GPGGA,214117.91,5315.7693,N,05022.3750,E,1,4,0.9,50.0,M,0.0,M,,*51
$GPVTG,89.0,T,,M,5.4,N,10.0,K,S*1E
$GPGGA,214118.01,5315.7694,N,05022.3751,E,1,4,0.9,50.0,M,0.0,M,,*51
$GPVTG,89.0,T,,M,5.4,N,10.0,K,S*1E
$GPGGA,214118.11,5315.7695,N,05022.3753,E,1,4,0.9,50.0,M,0.0,M,,*53
$GPVTG,89.0,T,,M,5.4,N,10.0,K,S*1E
$GPGGA,214118.21,5315.7697,N,05022.3754,E,1,4,0.9,50.0,M,0.0,M,,*55
$GPVTG,89.0,T,,M,5.4,N,10.0,K,S*1E
$GPGGA,214118.31,5315.7698,N,05022.3755,E,1,4,0.9,50.0,M,0.0,M,,*5A
$GPVTG,88.9,T,,M,5.4,N,10.0,K,S*16
$GPGGA,214118.41,5315.7699,N,05022.3757,E,1,4,0.9,50.0,M,0.0,M,,*5E
$GPVTG,88.9,T,,M,5.4,N,10.0,K,S*16
$GPGGA,214118.51,5315.7701,N,05022.3758,E,1,4,0.9,50.0,M,0.0,M,,*50
$GPVTG,88.9,T,,M,5.4,N,10.0,K,S*16
$GPGGA,214118.61,5315.7702,N,05022.3759,E,1,4,0.9,50.0,M,0.0,M,,*51
$GPVTG,88.9,T,,M,5.4,N,10.0,K,S*16
$GPGGA,214118.71,5315.7703,N,05022.3760,E,1,4,0.9,50.0,M,0.0,M,,*5B
$GPVTG,88.8,T,,M,5.4,N,10.0,K,S*17
$GPGGA,214118.81,5315.7705,N,05022.3761,E,1,4,0.9,50.0,M,0.0,M,,*53
$GPVTG,88.8,T,,M,5.4,N,10.0,K,S*17
$GPGGA,214118.91,5315.7706,N,05022.3762,E,1,4,0.9,50.0,M,0.0,M,,*52
$GPVTG,88.8,T,,M,5.4,N,10.0,K,S*17
$GPGGA,214119.01,5315.7707,N,05022.3763,E,1,4,0.9,50.0,M,0.0,M,,*5A
$GPVTG,88.8,T,,M,5.4,N,10.0,K,S*17
$GPGGA,214119.11,5315.7709,N,05022.3764,E,1,4,0.9,50.0,M,0.0,M,,*52
$GPVTG,88.8,T,,M,5.4,N,10.0,K,S*17
$GPGGA,214119.21,5315.7710,N,05022.3764,E,1,4,0.9,50.0,M,0.0,M,,*59
$GPVTG,88.7,T,,M,5.4,N,10.0,K,S*18
$GPGGA,214119.31,5315.7712,N,05022.3765,E,1,4,0.9,50.0,M,0.0,M,,*5B
$GPVTG,88.7,T,,M,5.4,N,10.0,K,S*18
$GPGGA,214119.41,5315.7713,N,05022.3766,E,1,4,0.9,50.0,M,0.0,M,,*5E
$GPVTG,88.7,T,,M,5.4,N,10.0,K,S*18
$GPGGA,214119.51,5315.7715,N,05022.3766,E,1,4,0.9,50.0,M,0.0,M,,*59
$GPVTG,88.7,T,,M,5.4,N,10.0,K,S*18
$GPGGA,214119.61,5315.7716,N,05022.3767,E,1,4,0.9,50.0,M,0.0,M,,*58
$GPVTG,88.6,T,,M,5.4,N,10.0,K,S*19
$GPGGA,214119.71,5315.7718,N,05022.3767,E,1,4,0.9,50.0,M,0.0,M,,*57
$GPVTG,88.6,T,,M,5.4,N,10.0,K,S*19
$GPGGA,214119.81,5315.7719,N,05022.3768,E,1,4,0.9,50.0,M,0.0,M,,*56
$GPVTG,88.6,T,,M,5.4,N,10.0,K,S*19
$GPGGA,214119.91,5315.7721,N,05022.3768,E,1,4,0.9,50.0,M,0.0,M,,*5C
$GPVTG,88.6,T,,M,5.4,N,10.0,K,S*19
$GPGGA,214120.01,5315.7722,N,05022.3768,E,1,4,0.9,50.0,M,0.0,M,,*5C
$GPVTG,88.5,T,,M,5.4,N,10.0,K,S*1A
$GPGGA,214120.11,5315.7724,N,05022.3768,E,1,4,0.9,50.0,M,0.0,M,,*5B
$GPVTG,88.5,T,,M,5.4,N,10.0,K,S*1A
$GPGGA,214120.21,5315.7725,N,05022.3769,E,1,4,0.9,50.0,M,0.0,M,,*58
$GPVTG,88.5,T,,M,5.4,N,10.0,K,S*1A
$GPGGA,214120.31,5315.7727,N,05022.3769,E,1,4,0.9,50.0,M,0.0,M,,*5B
$GPVTG,88.5,T,,M,5.4,N,10.0,K,S*1A
$GPGGA,214120.41,5315.7728,N,05022.3769,E,1,4,0.9,50.0,M,0.0,M,,*53
$GPVTG,88.4,T,,M,5.4,N,10.0,K,S*1B
$GPGGA,214120.51,5315.7730,N,05022.3769,E,1,4,0.9,50.0,M,0.0,M,,*5B
$GPVTG,88.4,T,,M,5.4,N,10.0,K,S*1B
$GPGGA,214120.61,5315.7731,N,05022.3769,E,1,4,0.9,50.0,M,0.0,M,,*59
$GPVTG,88.4,T,,M,5.4,N,10.0,K,S*1B
$GPGGA,214120.71,5315.7733,N,05022.3769,E,1,4,0.9,50.0,M,0.0,M,,*5A
$GPVTG,88.4,T,,M,5.4,N,10.0,K,S*1B
$GPGGA,214120.81,5315.7734,N,05022.3768,E,1,4,0.9,50.0,M,0.0,M,,*53
$GPVTG,88.3,T,,M,5.4,N,10.0,K,S*1C
$GPGGA,214120.91,5315.7736,N,05022.3768,E,1,4,0.9,50.0,M,0.0,M,,*50
$GPVTG,88.3,T,,M,5.4,N,10.0,K,S*1C
$GPGGA,214121.01,5315.7737,N,05022.3768,E,1,4,0.9,50.0,M,0.0,M,,*59
$GPVTG,88.3,T,,M,5.4,N,10.0,K,S*1C
$GPGGA,214121.11,5315.7738,N,05022.3767,E,1,4,0.9,50.0,M,0.0,M,,*58
$GPVTG,88.3,T,,M,5.4,N,10.0,K,S*1C
$GPGGA,214121.21,5315.7740,N,05022.3767,E,1,4,0.9,50.0,M,0.0,M,,*54
$GPVTG,88.2,T,,M,5.4,N,10.0,K,S*1D
$GPGGA,214121.31,5315.7741,N,05022.3766,E,1,4,0.9,50.0,M,0.0,M,,*55
$GPVTG,88.2,T,,M,5.4,N,10.0,K,S*1D
$GPGGA,214121.41,5315.7743,N,05022.3766,E,1,4,0.9,50.0,M,0.0,M,,*50
$GPVTG,88.2,T,,M,5.4,N,10.0,K,S*1D
$GPGGA,214121.51,5315.7744,N,05022.3765,E,1,4,0.9,50.0,M,0.0,M,,*55
$GPVTG,88.2,T,,M,5.4,N,10.0,K,S*1D
$GPGGA,214121.61,5315.7746,N,05022.3765,E,1,4,0.9,50.0,M,0.0,M,,*54
$GPVTG,88.1,T,,M,5.4,N,10.0,K,S*1E
$GPGGA,214121.71,5315.7747,N,05022.3764,E,1,4,0.9,50.0,M,0.0,M,,*55
$GPVTG,88.1,T,,M,5.4,N,10.0,K,S*1E
$GPGGA,214121.82,5315.7749,N,05022.3763,E,1,4,0.9,50.0,M,0.0,M,,*50
$GPVTG,88.1,T,,M,5.4,N,10.0,K,S*1E
$GPGGA,214121.92,5315.7750,N,05022.3762,E,1,4,0.9,50.0,M,0.0,M,,*58
$GPVTG,88.1,T,,M,5.4,N,10.0,K,S*1E
$GPGGA,214122.02,5315.7751,N,05022.3761,E,1,4,0.9,50.0,M,0.0,M,,*50
$GPVTG,88.0,T,,M,5.4,N,10.0,K,S*1F
$GPGGA,214122.12,5315.7753,N,05022.3760,E,1,4,0.9,50.0,M,0.0,M,,*52
$GPVTG,88.0,T,,M,5.4,N,10.0,K,S*1F
$GPGGA,214122.22,5315.7754,N,05022.3759,E,1,4,0.9,50.0,M,0.0,M,,*5C
$GPVTG,88.0,T,,M,5.4,N,10.0,K,S*1F
$GPGGA,214122.32,5315.7755,N,05022.3758,E,1,4,0.9,50.0,M,0.0,M,,*5D
$GPVTG,88.0,T,,M,5.4,N,10.0,K,S*1F
$GPGGA,214122.42,5315.7757,N,05022.3757,E,1,4,0.9,50.0,M,0.0,M,,*57
$GPVTG,87.9,T,,M,5.4,N,10.0,K,S*19
$GPGGA,214122.52,5315.7758,N,05022.3756,E,1,4,0.9,50.0,M,0.0,M,,*58
$GPVTG,87.9,T,,M,5.4,N,10.0,K,S*19
$GPGGA,214122.62,5315.7759,N,05022.3755,E,1,4,0.9,50.0,M,0.0,M,,*59
$GPVTG,87.9,T,,M,5.4,N,10.0,K,S*19
$GPGGA,214122.72,5315.7761,N,05022.3753,E,1,4,0.9,50.0,M,0.0,M,,*55
$GPVTG,87.9,T,,M,5.4,N,10.0,K,S*19
$GPGGA,214122.82,5315.7762,N,05022.3752,E,1,4,0.9,50.0,M,0.0,M,,*58
$GPVTG,87.8,T,,M,5.4,N,10.0,K,S*18
$GPGGA,214122.92,5315.7763,N,05022.3750,E,1,4,0.9,50.0,M,0.0,M,,*5A
$GPVTG,87.8,T,,M,5.4,N,10.0,K,S*18
$GPGGA,214123.02,5315.7764,N,05022.3749,E,1,4,0.9,50.0,M,0.0,M,,*5D
$GPVTG,87.8,T,,M,5.4,N,10.0,K,S*18
$GPGGA,214123.12,5315.7766,N,05022.3748,E,1,4,0.9,50.0,M,0.0,M,,*5F
$GPVTG,87.8,T,,M,5.4,N,10.0,K,S*18
$GPGGA,214123.22,5315.7767,N,05022.3746,E,1,4,0.9,50.0,M,0.0,M,,*53
$GPVTG,87.7,T,,M,5.4,N,10.0,K,S*17
$GPGGA,214123.32,5315.7768,N,05022.3744,E,1,4,0.9,50.0,M,0.0,M,,*5F
$GPVTG,87.7,T,,M,5.4,N,10.0,K,S*17
$GPGGA,214123.42,5315.7769,N,05022.3743,E,1,4,0.9,50.0,M,0.0,M,,*5E
$GPVTG,87.7,T,,M,5.4,N,10.0,K,S*17
$GPGGA,214123.52,5315.7770,N,05022.3741,E,1,4,0.9,50.0,M,0.0,M,,*55
$GPVTG,87.7,T,,M,5.4,N,10.0,K,S*17
$GPGGA,214123.62,5315.7771,N,05022.3739,E,1,4,0.9,50.0,M,0.0,M,,*58
$GPVTG,87.6,T,,M,5.4,N,10.0,K,S*16
$GPGGA,214123.72,5315.7772,N,05022.3738,E,1,4,0.9,50.0,M,0.0,M,,*5B
$GPVTG,87.6,T,,M,5.4,N,10.0,K,S*16
$GPGGA,214123.82,5315.7773,N,05022.3736,E,1,4,0.9,50.0,M,0.0,M,,*5B
$GPVTG,87.6,T,,M,5.4,N,10.0,K,S*16
$GPGGA,214123.92,5315.7774,N,05022.3734,E,1,4,0.9,50.0,M,0.0,M,,*5F
$GPVTG,87.6,T,,M,5.4,N,10.0,K,S*16
$GPGGA,214124.02,5315.7775,N,05022.3732,E,1,4,0.9,50.0,M,0.0,M,,*56
$GPVTG,87.6,T,,M,5.4,N,10.0,K,S*16
$GPGGA,214124.12,5315.7776,N,05022.3730,E,1,4,0.9,50.0,M,0.0,M,,*56
$GPVTG,87.5,T,,M,5.4,N,10.0,K,S*15
$GPGGA,214124.22,5315.7777,N,05022.3728,E,1,4,0.9,50.0,M,0.0,M,,*5D
$GPVTG,87.5,T,,M,5.4,N,10.0,K,S*15
$GPGGA,214124.32,5315.7778,N,05022.3726,E,1,4,0.9,50.0,M,0.0,M,,*5D
$GPVTG,87.5,T,,M,5.4,N,10.0,K,S*15
$GPGGA,214124.42,5315.7779,N,05022.3724,E,1,4,0.9,50.0,M,0.0,M,,*59
$GPVTG,87.5,T,,M,5.4,N,10.0,K,S*15
$GPGGA,214124.52,5315.7780,N,05022.3722,E,1,4,0.9,50.0,M,0.0,M,,*58
$GPVTG,87.4,T,,M,5.4,N,10.0,K,S*14
$GPGGA,214124.62,5315.7781,N,05022.3720,E,1,4,0.9,50.0,M,0.0,M,,*58
$GPVTG,87.4,T,,M,5.4,N,10.0,K,S*14
$GPGGA,214124.72,5315.7781,N,05022.3718,E,1,4,0.9,50.0,M,0.0,M,,*52
$GPVTG,87.4,T,,M,5.4,N,10.0,K,S*14
$GPGGA,214124.82,5315.7782,N,05022.3715,E,1,4,0.9,50.0,M,0.0,M,,*53
$GPVTG,87.4,T,,M,5.4,N,10.0,K,S*14
$GPGGA,214124.92,5315.7783,N,05022.3713,E,1,4,0.9,50.0,M,0.0,M,,*55
$GPVTG,87.3,T,,M,5.4,N,10.0,K,S*13
$GPGGA,214125.02,5315.7783,N,05022.3711,E,1,4,0.9,50.0,M,0.0,M,,*5F
$GPVTG,87.3,T,,M,5.4,N,10.0,K,S*13
$GPGGA,214125.12,5315.7784,N,05022.3709,E,1,4,0.9,50.0,M,0.0,M,,*50
$GPVTG,87.3,T,,M,5.4,N,10.0,K,S*13
$GPGGA,214125.23,5315.7785,N,05022.3706,E,1,4,0.9,50.0,M,0.0,M,,*5C
$GPVTG,87.3,T,,M,5.4,N,10.0,K,S*13
$GPGGA,214125.33,5315.7785,N,05022.3704,E,1,4,0.9,50.0,M,0.0,M,,*5F
$GPVTG,87.2,T,,M,5.4,N,10.0,K,S*12
$GPGGA,214125.43,5315.7786,N,05022.3702,E,1,4,0.9,50.0,M,0.0,M,,*5D
$GPVTG,87.2,T,,M,5.4,N,10.0,K,S*12
$GPGGA,214125.53,5315.7786,N,05022.3699,E,1,4,0.9,50.0,M,0.0,M,,*5F
$GPVTG,87.2,T,,M,5.4,N,10.0,K,S*12
$GPGGA,214125.63,5315.7787,N,05022.3697,E,1,4,0.9,50.0,M,0.0,M,,*53
$GPVTG,87.2,T,,M,5.4,N,10.0,K,S*12
$GPGGA,214125.73,5315.7787,N,05022.3695,E,1,4,0.9,50.0,M,0.0,M,,*50
$GPVTG,87.1,T,,M,5.4,N,10.0,K,S*11
$GPGGA,214125.83,5315.7787,N,05022.3692,E,1,4,0.9,50.0,M,0.0,M,,*58
$GPVTG,87.1,T,,M,5.4,N,10.0,K,S*11
$GPGGA,214125.93,5315.7788,N,05022.3690,E,1,4,0.9,50.0,M,0.0,M,,*54
$GPVTG,87.1,T,,M,5.4,N,10.0,K,S*11
$GPGGA,214126.03,5315.7788,N,05022.3687,E,1,4,0.9,50.0,M,0.0,M,,*58
$GPVTG,87.1,T,,M,5.4,N,10.0,K,S*11
$GPGGA,214126.13,5315.7788,N,05022.3685,E,1,4,0.9,50.0,M,0.0,M,,*5B
$GPVTG,87.0,T,,M,5.4,N,10.0,K,S*10
$GPGGA,214126.23,5315.7789,N,05022.3682,E,1,4,0.9,50.0,M,0.0,M,,*5E
$GPVTG,87.0,T,,M,5.4,N,10.0,K,S*10
$GPGGA,214126.33,5315.7789,N,05022.3680,E,1,4,0.9,50.0,M,0.0,M,,*5D
$GPVTG,87.0,T,,M,5.4,N,10.0,K,S*10
$GPGGA,214126.43,5315.7789,N,05022.3677,E,1,4,0.9,50.0,M,0.0,M,,*52
$GPVTG,87.0,T,,M,5.4,N,10.0,K,S*10
$GPGGA,214126.53,5315.7789,N,05022.3675,E,1,4,0.9,50.0,M,0.0,M,,*51
$GPVTG,86.9,T,,M,5.4,N,10.0,K,S*18
$GPGGA,214126.63,5315.7789,N,05022.3672,E,1,4,0.9,50.0,M,0.0,M,,*55
$GPVTG,86.9,T,,M,5.4,N,10.0,K,S*18
$GPGGA,214126.73,5315.7789,N,05022.3670,E,1,4,0.9,50.0,M,0.0,M,,*56
$GPVTG,86.9,T,,M,5.4,N,10.0,K,S*18
$GPGGA,214126.83,5315.7789,N,05022.3668,E,1,4,0.9,50.0,M,0.0,M,,*50
$GPVTG,86.9,T,,M,5.4,N,10.0,K,S*18
$GPGGA,214126.93,5315.7789,N,05022.3665,E,1,4,0.9,50.0,M,0.0,M,,*5C
$GPVTG,86.8,T,,M,5.4,N,10.0,K,S*19
$GPGGA,214127.03,5315.7789,N,05022.3663,E,1,4,0.9,50.0,M,0.0,M,,*52
$GPVTG,86.8,T,,M,5.4,N,10.0,K,S*19
$GPGGA,214127.13,5315.7789,N,05022.3660,E,1,4,0.9,50.0,M,0.0,M,,*50
$GPVTG,86.8,T,,M,5.4,N,10.0,K,S*19
$GPGGA,214127.23,5315.7789,N,05022.3658,E,1,4,0.9,50.0,M,0.0,M,,*58
$GPVTG,86.8,T,,M,5.4,N,10.0,K,S*19
$GPGGA,214127.33,5315.7789,N,05022.3655,E,1,4,0.9,50.0,M,0.0,M,,*54
$GPVTG,86.7,T,,M,5.4,N,10.0,K,S*16
$GPGGA,214127.43,5315.7789,N,05022.3653,E,1,4,0.9,50.0,M,0.0,M,,*55
$GPVTG,86.7,T,,M,5.4,N,10.0,K,S*16
$GPGGA,214127.53,5315.7789,N,05022.3650,E,1,4,0.9,50.0,M,0.0,M,,*57
$GPVTG,86.7,T,,M,5.4,N,10.0,K,S*16
$GPGGA,214127.63,5315.7788,N,05022.3648,E,1,4,0.9,50.0,M,0.0,M,,*5C
$GPVTG,86.7,T,,M,5.4,N,10.0,K,S*16
$GPGGA,214127.73,5315.7788,N,05022.3645,E,1,4,0.9,50.0,M,0.0,M,,*50
$GPVTG,86.6,T,,M,5.4,N,10.0,K,S*17
$GPGGA,214127.83,5315.7788,N,05022.3643,E,1,4,0.9,50.0,M,0.0,M,,*59
$GPVTG,86.6,T,,M,5.4,N,10.0,K,S*17
$GPGGA,214127.93,5315.7787,N,05022.3640,E,1,4,0.9,50.0,M,0.0,M,,*54
$GPVTG,86.6,T,,M,5.4,N,10.0,K,S*17
$GPGGA,214128.03,5315.7787,N,05022.3638,E,1,4,0.9,50.0,M,0.0,M,,*5D
$GPVTG,86.6,T,,M,5.4,N,10.0,K,S*17
$GPGGA,214128.13,5315.7786,N,05022.3636,E,1,4,0.9,50.0,M,0.0,M,,*53
$GPVTG,86.5,T,,M,5.4,N,10.0,K,S*14
$GPGGA,214128.23,5315.7786,N,05022.3633,E,1,4,0.9,50.0,M,0.0,M,,*55
$GPVTG,86.5,T,,M,5.4,N,10.0,K,S*14
$GPGGA,214128.33,5315.7785,N,05022.3631,E,1,4,0.9,50.0,M,0.0,M,,*55
$GPVTG,86.5,T,,M,5.4,N,10.0,K,S*14
$GPGGA,214128.43,5315.7785,N,05022.3629,E,1,4,0.9,50.0,M,0.0,M,,*5B
$GPVTG,86.5,T,,M,5.4,N,10.0,K,S*14
$GPGGA,214128.53,5315.7784,N,05022.3626,E,1,4,0.9,50.0,M,0.0,M,,*54
$GPVTG,86.4,T,,M,5.4,N,10.0,K,S*15
$GPGGA,214128.63,5315.7784,N,05022.3624,E,1,4,0.9,50.0,M,0.0,M,,*55
$GPVTG,86.4,T,,M,5.4,N,10.0,K,S*15
$GPGGA,214128.73,5315.7783,N,05022.3622,E,1,4,0.9,50.0,M,0.0,M,,*55
$GPVTG,86.4,T,,M,5.4,N,10.0,K,S*15
$GPGGA,214128.83,5315.7782,N,05022.3619,E,1,4,0.9,50.0,M,0.0,M,,*53
$GPVTG,86.4,T,,M,5.4,N,10.0,K,S*15
$GPGGA,214128.93,5315.7782,N,05022.3617,E,1,4,0.9,50.0,M,0.0,M,,*5C
$GPVTG,86.4,T,,M,5.4,N,10.0,K,S*15
$GPGGA,214129.03,5315.7781,N,05022.3615,E,1,4,0.9,50.0,M,0.0,M,,*55
$GPVTG,86.3,T,,M,5.4,N,10.0,K,S*12
$GPGGA,214129.13,5315.7780,N,05022.3613,E,1,4,0.9,50.0,M,0.0,M,,*53
$GPVTG,86.3,T,,M,5.4,N,10.0,K,S*12
$GPGGA,214129.23,5315.7779,N,05022.3611,E,1,4,0.9,50.0,M,0.0,M,,*54
$GPVTG,86.3,T,,M,5.4,N,10.0,K,S*12
$GPGGA,214129.33,5315.7779,N,05022.3609,E,1,4,0.9,50.0,M,0.0,M,,*5C
$GPVTG,86.3,T,,M,5.4,N,10.0,K,S*12
$GPGGA,214129.44,5315.7778,N,05022.3607,E,1,4,0.9,50.0,M,0.0,M,,*53
$GPVTG,86.2,T,,M,5.4,N,10.0,K,S*13
$GPGGA,214129.54,5315.7777,N,05022.3605,E,1,4,0.9,50.0,M,0.0,M,,*5F
$GPVTG,86.2,T,,M,5.4,N,10.0,K,S*13
$GPG